{
  "Cities": [
    {
      "Code": "DFW",
      "CountryCode": "US",
      "Name": "Dallas/Fort Worth",
      "Lat": 32.78,
      "Lon": -96.8,
      "IsHub": true,
      "ZoomLevels": [
        -3,
        -2,
        -1,
        0,
        1,
        2,
        3,
        4,
        5,
        6
      ],
      "CodeShareCity": false,
      "CustomIcon": null,
      "LabelPosition": "BR",
      "Priority": 10009
    },
    {
      "Code": "LAX",
      "CountryCode": "US",
      "Name": "Los Angeles",
      "Lat": 34.05,
      "Lon": -118.24,
      "IsHub": true,
      "ZoomLevels": [
        -3,
        -2,
        -1,
        0,
        1,
        2,
        3,
        4,
        5,
        6
      ],
      "CodeShareCity": false,
      "CustomIcon": null,
      "LabelPosition": "ML",
      "Priority": 10008
    },
    {
      "Code": "CHI",
      "CountryCode": "US",
      "Name": "Chicago",
      "Lat": 41.85,
      "Lon": -87.65,
      "IsHub": true,
      "ZoomLevels": [
        -3,
        -2,
        -1,
        0,
        1,
        2,
        3,
        4,
        5,
        6
      ],
      "CodeShareCity": false,
      "CustomIcon": null,
      "LabelPosition": "TR",
      "Priority": 10007
    },
    {
      "Code": "MIA",
      "CountryCode": "US",
      "Name": "Miami",
      "Lat": 25.79,
      "Lon": -80.23,
      "IsHub": true,
      "ZoomLevels": [
        -3,
        -2,
        -1,
        0,
        1,
        2,
        3,
        4,
        5,
        6
      ],
      "CodeShareCity": false,
      "CustomIcon": null,
      "LabelPosition": "BR",
      "Priority": 10006
    },
    {
      "Code": "NYC",
      "CountryCode": "US",
      "Name": "New York",
      "Lat": 40.7,
      "Lon": -74.01,
      "IsHub": true,
      "ZoomLevels": [
        -3,
        -2,
        -1,
        0,
        1,
        2,
        3,
        4,
        5,
        6
      ],
      "CodeShareCity": false,
      "CustomIcon": null,
      "LabelPosition": "TR",
      "Priority": 10005
    },
    {
      "Code": "CLT",
      "CountryCode": "US",
      "Name": "Charlotte",
      "Lat": 35.22,
      "Lon": -80.84,
      "IsHub": true,
      "ZoomLevels": [
        -3,
        -2,
        -1,
        0,
        1,
        2,
        3,
        4,
        5,
        6
      ],
      "CodeShareCity": false,
      "CustomIcon": null,
      "LabelPosition": "BR",
      "Priority": 10004
    },
    {
      "Code": "PHL",
      "CountryCode": "US",
      "Name": "Philadelphia",
      "Lat": 39.95,
      "Lon": -75.16,
      "IsHub": true,
      "ZoomLevels": [
        -3,
        -2,
        -1,
        0,
        1,
        2,
        3,
        4,
        5,
        6
      ],
      "CodeShareCity": false,
      "CustomIcon": null,
      "LabelPosition": "ML",
      "Priority": 10003
    },
    {
      "Code": "PHX",
      "CountryCode": "US",
      "Name": "Phoenix",
      "Lat": 33.44,
      "Lon": -112.07,
      "IsHub": true,
      "ZoomLevels": [
        -3,
        -2,
        -1,
        0,
        1,
        2,
        3,
        4,
        5,
        6
      ],
      "CodeShareCity": false,
      "CustomIcon": null,
      "LabelPosition": "BR",
      "Priority": 10002
    },
    {
      "Code": "WAS",
      "CountryCode": "US",
      "Name": "Washington",
      "Lat": 38.9,
      "Lon": -77.03,
      "IsHub": true,
      "ZoomLevels": [
        -3,
        -2,
        -1,
        0,
        1,
        2,
        3,
        4,
        5,
        6
      ],
      "CodeShareCity": false,
      "CustomIcon": null,
      "LabelPosition": "BL",
      "Priority": 10001
    },
    {
      "Code": "ABE",
      "CountryCode": "US",
      "Name": "Allentown",
      "Lat": 40.61,
      "Lon": -75.49,
      "IsHub": false,
      "ZoomLevels": [
        -3,
        1,
        2,
        3,
        4,
        5,
        6
      ],
      "CodeShareCity": false,
      "CustomIcon": null,
      "LabelPosition": "BR",
      "Priority": 0
    },
    {
      "Code": "ABI",
      "CountryCode": "US",
      "Name": "Abilene",
      "Lat": 32.41,
      "Lon": -99.72,
      "IsHub": false,
      "ZoomLevels": [
        -3,
        1,
        2,
        3,
        4,
        5,
        6
      ],
      "CodeShareCity": false,
      "CustomIcon": null,
      "LabelPosition": "BR",
      "Priority": 0
    },
    {
      "Code": "ABQ",
      "CountryCode": "US",
      "Name": "Albuquerque",
      "Lat": 35.11,
      "Lon": -106.61,
      "IsHub": false,
      "ZoomLevels": [
        -3,
        1,
        2,
        3,
        4,
        5,
        6
      ],
      "CodeShareCity": false,
      "CustomIcon": null,
      "LabelPosition": "BR",
      "Priority": 0
    },
    {
      "Code": "ABX",
      "CountryCode": "AU",
      "Name": "Albury",
      "Lat": -36.07,
      "Lon": 146.92,
      "IsHub": false,
      "ZoomLevels": [
        -3,
        1,
        2,
        3,
        4,
        5,
        6
      ],
      "CodeShareCity": false,
      "CustomIcon": null,
      "LabelPosition": "BR",
      "Priority": 0
    },
    {
      "Code": "ABZ",
      "CountryCode": "GB",
      "Name": "Aberdeen",
      "Lat": 57.15,
      "Lon": -2.09,
      "IsHub": false,
      "ZoomLevels": [
        -3,
        1,
        2,
        3,
        4,
        5,
        6
      ],
      "CodeShareCity": false,
      "CustomIcon": null,
      "LabelPosition": "BR",
      "Priority": 0
    },
    {
      "Code": "ACC",
      "CountryCode": "GH",
      "Name": "Accra",
      "Lat": 5.6,
      "Lon": -0.17,
      "IsHub": false,
      "ZoomLevels": [
        -3,
        1,
        2,
        3,
        4,
        5,
        6
      ],
      "CodeShareCity": false,
      "CustomIcon": null,
      "LabelPosition": "BR",
      "Priority": 0
    },
    {
      "Code": "ACE",
      "CountryCode": "ES",
      "Name": "Lanzarote",
      "Lat": 29.05,
      "Lon": -13.59,
      "IsHub": false,
      "ZoomLevels": [
        -3,
        1,
        2,
        3,
        4,
        5,
        6
      ],
      "CodeShareCity": false,
      "CustomIcon": null,
      "LabelPosition": "BR",
      "Priority": 0
    },
    {
      "Code": "ACK",
      "CountryCode": "US",
      "Name": "Nantucket",
      "Lat": 41.26,
      "Lon": -70.06,
      "IsHub": false,
      "ZoomLevels": [
        -3,
        1,
        2,
        3,
        4,
        5,
        6
      ],
      "CodeShareCity": false,
      "CustomIcon": null,
      "LabelPosition": "BR",
      "Priority": 0
    },
    {
      "Code": "ACT",
      "CountryCode": "US",
      "Name": "Waco",
      "Lat": 31.55,
      "Lon": -97.15,
      "IsHub": false,
      "ZoomLevels": [
        -3,
        1,
        2,
        3,
        4,
        5,
        6
      ],
      "CodeShareCity": false,
      "CustomIcon": null,
      "LabelPosition": "BR",
      "Priority": 0
    },
    {
      "Code": "ADD",
      "CountryCode": "ET",
      "Name": "Addis Ababa",
      "Lat": 9.02,
      "Lon": 38.75,
      "IsHub": false,
      "ZoomLevels": [
        -3,
        1,
        2,
        3,
        4,
        5,
        6
      ],
      "CodeShareCity": false,
      "CustomIcon": null,
      "LabelPosition": "BR",
      "Priority": 0
    },
    {
      "Code": "ADL",
      "CountryCode": "AU",
      "Name": "Adelaide",
      "Lat": -34.95,
      "Lon": 138.6,
      "IsHub": false,
      "ZoomLevels": [
        -3,
        1,
        2,
        3,
        4,
        5,
        6
      ],
      "CodeShareCity": false,
      "CustomIcon": null,
      "LabelPosition": "BR",
      "Priority": 0
    },
    {
      "Code": "AEX",
      "CountryCode": "US",
      "Name": "Alexandria",
      "Lat": 31.33,
      "Lon": -92.45,
      "IsHub": false,
      "ZoomLevels": [
        -3,
        1,
        2,
        3,
        4,
        5,
        6
      ],
      "CodeShareCity": false,
      "CustomIcon": null,
      "LabelPosition": "BR",
      "Priority": 0
    },
    {
      "Code": "AGP",
      "CountryCode": "ES",
      "Name": "Malaga",
      "Lat": 36.73,
      "Lon": -4.42,
      "IsHub": false,
      "ZoomLevels": [
        -3,
        1,
        2,
        3,
        4,
        5,
        6
      ],
      "CodeShareCity": false,
      "CustomIcon": null,
      "LabelPosition": "BR",
      "Priority": 0
    },
    {
      "Code": "AGS",
      "CountryCode": "US",
      "Name": "Augusta",
      "Lat": 33.47,
      "Lon": -82.01,
      "IsHub": false,
      "ZoomLevels": [
        -3,
        1,
        2,
        3,
        4,
        5,
        6
      ],
      "CodeShareCity": false,
      "CustomIcon": null,
      "LabelPosition": "BR",
      "Priority": 0
    },
    {
      "Code": "AGU",
      "CountryCode": "MX",
      "Name": "Aguascalientes",
      "Lat": 21.88,
      "Lon": -102.32,
      "IsHub": false,
      "ZoomLevels": [
        -3,
        1,
        2,
        3,
        4,
        5,
        6
      ],
      "CodeShareCity": false,
      "CustomIcon": null,
      "LabelPosition": "BR",
      "Priority": 0
    },
    {
      "Code": "AKL",
      "CountryCode": "NZ",
      "Name": "Auckland",
      "Lat": -36.85,
      "Lon": 174.8,
      "IsHub": false,
      "ZoomLevels": [
        -3,
        1,
        2,
        3,
        4,
        5,
        6
      ],
      "CodeShareCity": false,
      "CustomIcon": null,
      "LabelPosition": "BR",
      "Priority": 0
    },
    {
      "Code": "ALB",
      "CountryCode": "US",
      "Name": "Albany",
      "Lat": 42.65,
      "Lon": -73.76,
      "IsHub": false,
      "ZoomLevels": [
        -3,
        1,
        2,
        3,
        4,
        5,
        6
      ],
      "CodeShareCity": false,
      "CustomIcon": null,
      "LabelPosition": "BR",
      "Priority": 0
    },
    {
      "Code": "ALC",
      "CountryCode": "ES",
      "Name": "Alicante",
      "Lat": 38.28,
      "Lon": -0.57,
      "IsHub": false,
      "ZoomLevels": [
        -3,
        1,
        2,
        3,
        4,
        5,
        6
      ],
      "CodeShareCity": false,
      "CustomIcon": null,
      "LabelPosition": "BR",
      "Priority": 0
    },
    {
      "Code": "ALO",
      "CountryCode": "US",
      "Name": "Waterloo",
      "Lat": 42.49,
      "Lon": -92.34,
      "IsHub": false,
      "ZoomLevels": [
        -3,
        1,
        2,
        3,
        4,
        5,
        6
      ],
      "CodeShareCity": false,
      "CustomIcon": null,
      "LabelPosition": "BR",
      "Priority": 0
    },
    {
      "Code": "ALW",
      "CountryCode": "US",
      "Name": "Walla Walla",
      "Lat": 46.09,
      "Lon": -118.34,
      "IsHub": false,
      "ZoomLevels": [
        -3,
        1,
        2,
        3,
        4,
        5,
        6
      ],
      "CodeShareCity": false,
      "CustomIcon": null,
      "LabelPosition": "BR",
      "Priority": 0
    },
    {
      "Code": "AMA",
      "CountryCode": "US",
      "Name": "Amarillo",
      "Lat": 35.23,
      "Lon": -101.83,
      "IsHub": false,
      "ZoomLevels": [
        -3,
        1,
        2,
        3,
        4,
        5,
        6
      ],
      "CodeShareCity": false,
      "CustomIcon": null,
      "LabelPosition": "BR",
      "Priority": 0
    },
    {
      "Code": "AMM",
      "CountryCode": "JO",
      "Name": "Amman",
      "Lat": 31.96,
      "Lon": 35.95,
      "IsHub": false,
      "ZoomLevels": [
        -3,
        1,
        2,
        3,
        4,
        5,
        6
      ],
      "CodeShareCity": false,
      "CustomIcon": null,
      "LabelPosition": "BR",
      "Priority": 0
    },
    {
      "Code": "AMS",
      "CountryCode": "NL",
      "Name": "Amsterdam",
      "Lat": 52.37,
      "Lon": 4.9,
      "IsHub": false,
      "ZoomLevels": [
        -3,
        1,
        2,
        3,
        4,
        5,
        6
      ],
      "CodeShareCity": false,
      "CustomIcon": null,
      "LabelPosition": "BR",
      "Priority": 0
    },
    {
      "Code": "ANC",
      "CountryCode": "US",
      "Name": "Anchorage",
      "Lat": 61.22,
      "Lon": -149.9,
      "IsHub": false,
      "ZoomLevels": [
        -3,
        1,
        2,
        3,
        4,
        5,
        6
      ],
      "CodeShareCity": false,
      "CustomIcon": null,
      "LabelPosition": "BR",
      "Priority": 0
    },
    {
      "Code": "ANF",
      "CountryCode": "CL",
      "Name": "Antofagasta",
      "Lat": -23.65,
      "Lon": -70.44,
      "IsHub": false,
      "ZoomLevels": [
        -3,
        1,
        2,
        3,
        4,
        5,
        6
      ],
      "CodeShareCity": false,
      "CustomIcon": null,
      "LabelPosition": "BR",
      "Priority": 0
    },
    {
      "Code": "ANU",
      "CountryCode": "AG",
      "Name": "Antigua",
      "Lat": 17.11,
      "Lon": -61.82,
      "IsHub": false,
      "ZoomLevels": [
        -3,
        1,
        2,
        3,
        4,
        5,
        6
      ],
      "CodeShareCity": false,
      "CustomIcon": null,
      "LabelPosition": "BR",
      "Priority": 0
    },
    {
      "Code": "AQJ",
      "CountryCode": "JO",
      "Name": "Aqaba",
      "Lat": 29.53,
      "Lon": 35.02,
      "IsHub": false,
      "ZoomLevels": [
        -3,
        1,
        2,
        3,
        4,
        5,
        6
      ],
      "CodeShareCity": false,
      "CustomIcon": null,
      "LabelPosition": "BR",
      "Priority": 0
    },
    {
      "Code": "AQP",
      "CountryCode": "PE",
      "Name": "Arequipa",
      "Lat": -16.4,
      "Lon": -71.55,
      "IsHub": false,
      "ZoomLevels": [
        -3,
        1,
        2,
        3,
        4,
        5,
        6
      ],
      "CodeShareCity": false,
      "CustomIcon": null,
      "LabelPosition": "BR",
      "Priority": 0
    },
    {
      "Code": "ART",
      "CountryCode": "US",
      "Name": "Watertown",
      "Lat": 43.99,
      "Lon": -75.91,
      "IsHub": false,
      "ZoomLevels": [
        -3,
        1,
        2,
        3,
        4,
        5,
        6
      ],
      "CodeShareCity": false,
      "CustomIcon": null,
      "LabelPosition": "BR",
      "Priority": 0
    },
    {
      "Code": "ASE",
      "CountryCode": "US",
      "Name": "Aspen",
      "Lat": 39.22,
      "Lon": -106.82,
      "IsHub": false,
      "ZoomLevels": [
        -3,
        1,
        2,
        3,
        4,
        5,
        6
      ],
      "CodeShareCity": false,
      "CustomIcon": null,
      "LabelPosition": "BR",
      "Priority": 0
    },
    {
      "Code": "ASP",
      "CountryCode": "AU",
      "Name": "Alice Springs",
      "Lat": -23.7,
      "Lon": 133.88,
      "IsHub": false,
      "ZoomLevels": [
        -3,
        1,
        2,
        3,
        4,
        5,
        6
      ],
      "CodeShareCity": false,
      "CustomIcon": null,
      "LabelPosition": "BR",
      "Priority": 0
    },
    {
      "Code": "ATH",
      "CountryCode": "GR",
      "Name": "Athens",
      "Lat": 37.98,
      "Lon": 23.73,
      "IsHub": false,
      "ZoomLevels": [
        -3,
        1,
        2,
        3,
        4,
        5,
        6
      ],
      "CodeShareCity": false,
      "CustomIcon": null,
      "LabelPosition": "BR",
      "Priority": 0
    },
    {
      "Code": "ATL",
      "CountryCode": "US",
      "Name": "Atlanta",
      "Lat": 33.75,
      "Lon": -84.43,
      "IsHub": false,
      "ZoomLevels": [
        -3,
        1,
        2,
        3,
        4,
        5,
        6
      ],
      "CodeShareCity": false,
      "CustomIcon": null,
      "LabelPosition": "BR",
      "Priority": 0
    },
    {
      "Code": "AUA",
      "CountryCode": "AW",
      "Name": "Aruba",
      "Lat": 12.5,
      "Lon": -70.01,
      "IsHub": false,
      "ZoomLevels": [
        -3,
        1,
        2,
        3,
        4,
        5,
        6
      ],
      "CodeShareCity": false,
      "CustomIcon": null,
      "LabelPosition": "BR",
      "Priority": 0
    },
    {
      "Code": "AUH",
      "CountryCode": "AE",
      "Name": "Abu Dhabi",
      "Lat": 24.43,
      "Lon": 54.37,
      "IsHub": false,
      "ZoomLevels": [
        -3,
        1,
        2,
        3,
        4,
        5,
        6
      ],
      "CodeShareCity": false,
      "CustomIcon": null,
      "LabelPosition": "BR",
      "Priority": 0
    },
    {
      "Code": "AUS",
      "CountryCode": "US",
      "Name": "Austin",
      "Lat": 30.27,
      "Lon": -97.74,
      "IsHub": false,
      "ZoomLevels": [
        -3,
        1,
        2,
        3,
        4,
        5,
        6
      ],
      "CodeShareCity": false,
      "CustomIcon": null,
      "LabelPosition": "BR",
      "Priority": 0
    },
    {
      "Code": "AUW",
      "CountryCode": "US",
      "Name": "Wausau",
      "Lat": 44.96,
      "Lon": -89.63,
      "IsHub": false,
      "ZoomLevels": [
        -3,
        1,
        2,
        3,
        4,
        5,
        6
      ],
      "CodeShareCity": false,
      "CustomIcon": null,
      "LabelPosition": "BR",
      "Priority": 0
    },
    {
      "Code": "AVL",
      "CountryCode": "US",
      "Name": "Asheville/Hendersonville",
      "Lat": 35.6,
      "Lon": -82.54,
      "IsHub": false,
      "ZoomLevels": [
        -3,
        1,
        2,
        3,
        4,
        5,
        6
      ],
      "CodeShareCity": false,
      "CustomIcon": null,
      "LabelPosition": "BR",
      "Priority": 0
    },
    {
      "Code": "AVP",
      "CountryCode": "US",
      "Name": "Wilkes-Barre/Scranton",
      "Lat": 41.25,
      "Lon": -75.88,
      "IsHub": false,
      "ZoomLevels": [
        -3,
        1,
        2,
        3,
        4,
        5,
        6
      ],
      "CodeShareCity": false,
      "CustomIcon": null,
      "LabelPosition": "BR",
      "Priority": 0
    },
    {
      "Code": "AXA",
      "CountryCode": "AI",
      "Name": "Anguilla",
      "Lat": 18.22,
      "Lon": -63.07,
      "IsHub": false,
      "ZoomLevels": [
        -3,
        1,
        2,
        3,
        4,
        5,
        6
      ],
      "CodeShareCity": false,
      "CustomIcon": null,
      "LabelPosition": "BR",
      "Priority": 0
    },
    {
      "Code": "AZO",
      "CountryCode": "US",
      "Name": "Kalamazoo/Battle Creek",
      "Lat": 42.29,
      "Lon": -85.55,
      "IsHub": false,
      "ZoomLevels": [
        -3,
        1,
        2,
        3,
        4,
        5,
        6
      ],
      "CodeShareCity": false,
      "CustomIcon": null,
      "LabelPosition": "BR",
      "Priority": 0
    },
    {
      "Code": "BAH",
      "CountryCode": "BH",
      "Name": "Bahrain",
      "Lat": 26.07,
      "Lon": 50.56,
      "IsHub": false,
      "ZoomLevels": [
        -3,
        1,
        2,
        3,
        4,
        5,
        6
      ],
      "CodeShareCity": false,
      "CustomIcon": null,
      "LabelPosition": "BR",
      "Priority": 0
    },
    {
      "Code": "BAQ",
      "CountryCode": "CO",
      "Name": "Barranquilla",
      "Lat": 10.96,
      "Lon": -74.78,
      "IsHub": false,
      "ZoomLevels": [
        -3,
        1,
        2,
        3,
        4,
        5,
        6
      ],
      "CodeShareCity": false,
      "CustomIcon": null,
      "LabelPosition": "BR",
      "Priority": 0
    },
    {
      "Code": "BCN",
      "CountryCode": "ES",
      "Name": "Barcelona",
      "Lat": 41.39,
      "Lon": 2.17,
      "IsHub": false,
      "ZoomLevels": [
        -3,
        1,
        2,
        3,
        4,
        5,
        6
      ],
      "CodeShareCity": false,
      "CustomIcon": null,
      "LabelPosition": "BR",
      "Priority": 0
    },
    {
      "Code": "BDA",
      "CountryCode": "BM",
      "Name": "Bermuda",
      "Lat": 32.31,
      "Lon": -64.75,
      "IsHub": false,
      "ZoomLevels": [
        -3,
        1,
        2,
        3,
        4,
        5,
        6
      ],
      "CodeShareCity": false,
      "CustomIcon": null,
      "LabelPosition": "BR",
      "Priority": 0
    },
    {
      "Code": "BEL",
      "CountryCode": "BR",
      "Name": "Belem",
      "Lat": -1.45,
      "Lon": -48.48,
      "IsHub": false,
      "ZoomLevels": [
        -3,
        1,
        2,
        3,
        4,
        5,
        6
      ],
      "CodeShareCity": false,
      "CustomIcon": null,
      "LabelPosition": "BR",
      "Priority": 0
    },
    {
      "Code": "BER",
      "CountryCode": "DE",
      "Name": "Berlin",
      "Lat": 52.51,
      "Lon": 13.4,
      "IsHub": false,
      "ZoomLevels": [
        -3,
        1,
        2,
        3,
        4,
        5,
        6
      ],
      "CodeShareCity": false,
      "CustomIcon": null,
      "LabelPosition": "BR",
      "Priority": 0
    },
    {
      "Code": "BFL",
      "CountryCode": "US",
      "Name": "Bakersfield",
      "Lat": 35.37,
      "Lon": -119.05,
      "IsHub": false,
      "ZoomLevels": [
        -3,
        1,
        2,
        3,
        4,
        5,
        6
      ],
      "CodeShareCity": false,
      "CustomIcon": null,
      "LabelPosition": "BR",
      "Priority": 0
    },
    {
      "Code": "BFS",
      "CountryCode": "GB",
      "Name": "Belfast",
      "Lat": 54.58,
      "Lon": -5.92,
      "IsHub": false,
      "ZoomLevels": [
        -3,
        1,
        2,
        3,
        4,
        5,
        6
      ],
      "CodeShareCity": false,
      "CustomIcon": null,
      "LabelPosition": "BR",
      "Priority": 0
    },
    {
      "Code": "BGI",
      "CountryCode": "BB",
      "Name": "Bridgetown",
      "Lat": 13.07,
      "Lon": -59.61,
      "IsHub": false,
      "ZoomLevels": [
        -3,
        1,
        2,
        3,
        4,
        5,
        6
      ],
      "CodeShareCity": false,
      "CustomIcon": null,
      "LabelPosition": "BR",
      "Priority": 0
    },
    {
      "Code": "BGM",
      "CountryCode": "US",
      "Name": "Binghamton",
      "Lat": 42.1,
      "Lon": -75.92,
      "IsHub": false,
      "ZoomLevels": [
        -3,
        1,
        2,
        3,
        4,
        5,
        6
      ],
      "CodeShareCity": false,
      "CustomIcon": null,
      "LabelPosition": "BR",
      "Priority": 0
    },
    {
      "Code": "BGO",
      "CountryCode": "NO",
      "Name": "Bergen",
      "Lat": 60.39,
      "Lon": 5.32,
      "IsHub": false,
      "ZoomLevels": [
        -3,
        1,
        2,
        3,
        4,
        5,
        6
      ],
      "CodeShareCity": false,
      "CustomIcon": null,
      "LabelPosition": "BR",
      "Priority": 0
    },
    {
      "Code": "BGR",
      "CountryCode": "US",
      "Name": "Bangor",
      "Lat": 44.81,
      "Lon": -68.78,
      "IsHub": false,
      "ZoomLevels": [
        -3,
        1,
        2,
        3,
        4,
        5,
        6
      ],
      "CodeShareCity": false,
      "CustomIcon": null,
      "LabelPosition": "BR",
      "Priority": 0
    },
    {
      "Code": "BHM",
      "CountryCode": "US",
      "Name": "Birmingham",
      "Lat": 33.56,
      "Lon": -86.8,
      "IsHub": false,
      "ZoomLevels": [
        -3,
        1,
        2,
        3,
        4,
        5,
        6
      ],
      "CodeShareCity": false,
      "CustomIcon": null,
      "LabelPosition": "BR",
      "Priority": 0
    },
    {
      "Code": "BHZ",
      "CountryCode": "BR",
      "Name": "Belo Horizonte",
      "Lat": -19.92,
      "Lon": -43.94,
      "IsHub": false,
      "ZoomLevels": [
        -3,
        1,
        2,
        3,
        4,
        5,
        6
      ],
      "CodeShareCity": false,
      "CustomIcon": null,
      "LabelPosition": "BR",
      "Priority": 0
    },
    {
      "Code": "BIL",
      "CountryCode": "US",
      "Name": "Billings",
      "Lat": 45.81,
      "Lon": -108.54,
      "IsHub": false,
      "ZoomLevels": [
        -3,
        1,
        2,
        3,
        4,
        5,
        6
      ],
      "CodeShareCity": false,
      "CustomIcon": null,
      "LabelPosition": "BR",
      "Priority": 0
    },
    {
      "Code": "BIO",
      "CountryCode": "ES",
      "Name": "Bilbao",
      "Lat": 43.3,
      "Lon": -2.92,
      "IsHub": false,
      "ZoomLevels": [
        -3,
        1,
        2,
        3,
        4,
        5,
        6
      ],
      "CodeShareCity": false,
      "CustomIcon": null,
      "LabelPosition": "BR",
      "Priority": 0
    },
    {
      "Code": "BIS",
      "CountryCode": "US",
      "Name": "Bismarck",
      "Lat": 46.8,
      "Lon": -100.78,
      "IsHub": false,
      "ZoomLevels": [
        -3,
        1,
        2,
        3,
        4,
        5,
        6
      ],
      "CodeShareCity": false,
      "CustomIcon": null,
      "LabelPosition": "BR",
      "Priority": 0
    },
    {
      "Code": "BJS",
      "CountryCode": "CN",
      "Name": "Beijing",
      "Lat": 39.9,
      "Lon": 116.41,
      "IsHub": false,
      "ZoomLevels": [
        -3,
        1,
        2,
        3,
        4,
        5,
        6
      ],
      "CodeShareCity": false,
      "CustomIcon": null,
      "LabelPosition": "BR",
      "Priority": 0
    },
    {
      "Code": "BJX",
      "CountryCode": "MX",
      "Name": "Leon/Guanajuato",
      "Lat": 21,
      "Lon": -102.48,
      "IsHub": false,
      "ZoomLevels": [
        -3,
        1,
        2,
        3,
        4,
        5,
        6
      ],
      "CodeShareCity": false,
      "CustomIcon": null,
      "LabelPosition": "BR",
      "Priority": 0
    },
    {
      "Code": "BJZ",
      "CountryCode": "ES",
      "Name": "Badajoz",
      "Lat": 38.89,
      "Lon": -6.97,
      "IsHub": false,
      "ZoomLevels": [
        -3,
        1,
        2,
        3,
        4,
        5,
        6
      ],
      "CodeShareCity": false,
      "CustomIcon": null,
      "LabelPosition": "BR",
      "Priority": 0
    },
    {
      "Code": "BKK",
      "CountryCode": "TH",
      "Name": "Bangkok",
      "Lat": 13.73,
      "Lon": 100.52,
      "IsHub": false,
      "ZoomLevels": [
        -3,
        1,
        2,
        3,
        4,
        5,
        6
      ],
      "CodeShareCity": false,
      "CustomIcon": null,
      "LabelPosition": "BR",
      "Priority": 0
    },
    {
      "Code": "BLI",
      "CountryCode": "US",
      "Name": "Bellingham",
      "Lat": 48.79,
      "Lon": -122.49,
      "IsHub": false,
      "ZoomLevels": [
        -3,
        1,
        2,
        3,
        4,
        5,
        6
      ],
      "CodeShareCity": false,
      "CustomIcon": null,
      "LabelPosition": "BR",
      "Priority": 0
    },
    {
      "Code": "BLQ",
      "CountryCode": "IT",
      "Name": "Bologna",
      "Lat": 44.53,
      "Lon": 11.29,
      "IsHub": false,
      "ZoomLevels": [
        -3,
        1,
        2,
        3,
        4,
        5,
        6
      ],
      "CodeShareCity": false,
      "CustomIcon": null,
      "LabelPosition": "BR",
      "Priority": 0
    },
    {
      "Code": "BLR",
      "CountryCode": "IN",
      "Name": "Bengaluru",
      "Lat": 12.97,
      "Lon": 77.59,
      "IsHub": false,
      "ZoomLevels": [
        -3,
        1,
        2,
        3,
        4,
        5,
        6
      ],
      "CodeShareCity": false,
      "CustomIcon": null,
      "LabelPosition": "BR",
      "Priority": 0
    },
    {
      "Code": "BMI",
      "CountryCode": "US",
      "Name": "Bloomington-Normal",
      "Lat": 40.48,
      "Lon": -88.99,
      "IsHub": false,
      "ZoomLevels": [
        -3,
        1,
        2,
        3,
        4,
        5,
        6
      ],
      "CodeShareCity": false,
      "CustomIcon": null,
      "LabelPosition": "BR",
      "Priority": 0
    },
    {
      "Code": "BNA",
      "CountryCode": "US",
      "Name": "Nashville",
      "Lat": 36.13,
      "Lon": -86.78,
      "IsHub": false,
      "ZoomLevels": [
        -3,
        1,
        2,
        3,
        4,
        5,
        6
      ],
      "CodeShareCity": false,
      "CustomIcon": null,
      "LabelPosition": "BR",
      "Priority": 0
    },
    {
      "Code": "BNE",
      "CountryCode": "AU",
      "Name": "Brisbane",
      "Lat": -27.47,
      "Lon": 153.02,
      "IsHub": false,
      "ZoomLevels": [
        -3,
        1,
        2,
        3,
        4,
        5,
        6
      ],
      "CodeShareCity": false,
      "CustomIcon": null,
      "LabelPosition": "BR",
      "Priority": 0
    },
    {
      "Code": "BOD",
      "CountryCode": "FR",
      "Name": "Bordeaux",
      "Lat": 44.83,
      "Lon": -0.58,
      "IsHub": false,
      "ZoomLevels": [
        -3,
        1,
        2,
        3,
        4,
        5,
        6
      ],
      "CodeShareCity": false,
      "CustomIcon": null,
      "LabelPosition": "BR",
      "Priority": 0
    },
    {
      "Code": "BOG",
      "CountryCode": "CO",
      "Name": "Bogota",
      "Lat": 4.6,
      "Lon": -74.08,
      "IsHub": false,
      "ZoomLevels": [
        -3,
        1,
        2,
        3,
        4,
        5,
        6
      ],
      "CodeShareCity": false,
      "CustomIcon": null,
      "LabelPosition": "BR",
      "Priority": 0
    },
    {
      "Code": "BOI",
      "CountryCode": "US",
      "Name": "Boise",
      "Lat": 43.62,
      "Lon": -116.23,
      "IsHub": false,
      "ZoomLevels": [
        -3,
        1,
        2,
        3,
        4,
        5,
        6
      ],
      "CodeShareCity": false,
      "CustomIcon": null,
      "LabelPosition": "BR",
      "Priority": 0
    },
    {
      "Code": "BOM",
      "CountryCode": "IN",
      "Name": "Mumbai",
      "Lat": 19.09,
      "Lon": 72.85,
      "IsHub": false,
      "ZoomLevels": [
        -3,
        1,
        2,
        3,
        4,
        5,
        6
      ],
      "CodeShareCity": false,
      "CustomIcon": null,
      "LabelPosition": "BR",
      "Priority": 0
    },
    {
      "Code": "BOS",
      "CountryCode": "US",
      "Name": "Boston",
      "Lat": 42.37,
      "Lon": -71.06,
      "IsHub": false,
      "ZoomLevels": [
        -3,
        1,
        2,
        3,
        4,
        5,
        6
      ],
      "CodeShareCity": false,
      "CustomIcon": null,
      "LabelPosition": "BR",
      "Priority": 0
    },
    {
      "Code": "BPT",
      "CountryCode": "US",
      "Name": "Beaumont/Port Arthur",
      "Lat": 30.08,
      "Lon": -94.13,
      "IsHub": false,
      "ZoomLevels": [
        -3,
        1,
        2,
        3,
        4,
        5,
        6
      ],
      "CodeShareCity": false,
      "CustomIcon": null,
      "LabelPosition": "BR",
      "Priority": 0
    },
    {
      "Code": "BRC",
      "CountryCode": "AR",
      "Name": "San Carlos Bariloche",
      "Lat": -41.15,
      "Lon": -71.31,
      "IsHub": false,
      "ZoomLevels": [
        -3,
        1,
        2,
        3,
        4,
        5,
        6
      ],
      "CodeShareCity": false,
      "CustomIcon": null,
      "LabelPosition": "BR",
      "Priority": 0
    },
    {
      "Code": "BRO",
      "CountryCode": "US",
      "Name": "Brownsville",
      "Lat": 25.91,
      "Lon": -97.5,
      "IsHub": false,
      "ZoomLevels": [
        -3,
        1,
        2,
        3,
        4,
        5,
        6
      ],
      "CodeShareCity": false,
      "CustomIcon": null,
      "LabelPosition": "BR",
      "Priority": 0
    },
    {
      "Code": "BRU",
      "CountryCode": "BE",
      "Name": "Brussels",
      "Lat": 50.85,
      "Lon": 4.35,
      "IsHub": false,
      "ZoomLevels": [
        -3,
        1,
        2,
        3,
        4,
        5,
        6
      ],
      "CodeShareCity": false,
      "CustomIcon": null,
      "LabelPosition": "BR",
      "Priority": 0
    },
    {
      "Code": "BSB",
      "CountryCode": "BR",
      "Name": "Brasilia",
      "Lat": -15.78,
      "Lon": -47.92,
      "IsHub": false,
      "ZoomLevels": [
        -3,
        1,
        2,
        3,
        4,
        5,
        6
      ],
      "CodeShareCity": false,
      "CustomIcon": null,
      "LabelPosition": "BR",
      "Priority": 0
    },
    {
      "Code": "BTR",
      "CountryCode": "US",
      "Name": "Baton Rouge",
      "Lat": 30.46,
      "Lon": -91.15,
      "IsHub": false,
      "ZoomLevels": [
        -3,
        1,
        2,
        3,
        4,
        5,
        6
      ],
      "CodeShareCity": false,
      "CustomIcon": null,
      "LabelPosition": "BR",
      "Priority": 0
    },
    {
      "Code": "BTV",
      "CountryCode": "US",
      "Name": "Burlington",
      "Lat": 44.48,
      "Lon": -73.21,
      "IsHub": false,
      "ZoomLevels": [
        -3,
        1,
        2,
        3,
        4,
        5,
        6
      ],
      "CodeShareCity": false,
      "CustomIcon": null,
      "LabelPosition": "BR",
      "Priority": 0
    },
    {
      "Code": "BUD",
      "CountryCode": "HU",
      "Name": "Budapest",
      "Lat": 47.5,
      "Lon": 19.04,
      "IsHub": false,
      "ZoomLevels": [
        -3,
        1,
        2,
        3,
        4,
        5,
        6
      ],
      "CodeShareCity": false,
      "CustomIcon": null,
      "LabelPosition": "BR",
      "Priority": 0
    },
    {
      "Code": "BUE",
      "CountryCode": "AR",
      "Name": "Buenos Aires",
      "Lat": -34.6,
      "Lon": -58.38,
      "IsHub": false,
      "ZoomLevels": [
        -3,
        1,
        2,
        3,
        4,
        5,
        6
      ],
      "CodeShareCity": false,
      "CustomIcon": null,
      "LabelPosition": "BR",
      "Priority": 0
    },
    {
      "Code": "BUF",
      "CountryCode": "US",
      "Name": "Buffalo",
      "Lat": 42.89,
      "Lon": -78.88,
      "IsHub": false,
      "ZoomLevels": [
        -3,
        1,
        2,
        3,
        4,
        5,
        6
      ],
      "CodeShareCity": false,
      "CustomIcon": null,
      "LabelPosition": "BR",
      "Priority": 0
    },
    {
      "Code": "BUH",
      "CountryCode": "RO",
      "Name": "Bucharest",
      "Lat": 44.43,
      "Lon": 26.1,
      "IsHub": false,
      "ZoomLevels": [
        -3,
        1,
        2,
        3,
        4,
        5,
        6
      ],
      "CodeShareCity": false,
      "CustomIcon": null,
      "LabelPosition": "BR",
      "Priority": 0
    },
    {
      "Code": "BUR",
      "CountryCode": "US",
      "Name": "Burbank",
      "Lat": 34.2,
      "Lon": -118.31,
      "IsHub": false,
      "ZoomLevels": [
        -3,
        1,
        2,
        3,
        4,
        5,
        6
      ],
      "CodeShareCity": false,
      "CustomIcon": null,
      "LabelPosition": "TL",
      "Priority": 0
    },
    {
      "Code": "BWI",
      "CountryCode": "US",
      "Name": "Baltimore",
      "Lat": 39.29,
      "Lon": -76.61,
      "IsHub": false,
      "ZoomLevels": [
        -3,
        1,
        2,
        3,
        4,
        5,
        6
      ],
      "CodeShareCity": false,
      "CustomIcon": null,
      "LabelPosition": "BR",
      "Priority": 0
    },
    {
      "Code": "BZE",
      "CountryCode": "BZ",
      "Name": "Belize City",
      "Lat": 17.54,
      "Lon": -88.19,
      "IsHub": false,
      "ZoomLevels": [
        -3,
        1,
        2,
        3,
        4,
        5,
        6
      ],
      "CodeShareCity": false,
      "CustomIcon": null,
      "LabelPosition": "BR",
      "Priority": 0
    },
    {
      "Code": "BZN",
      "CountryCode": "US",
      "Name": "Bozeman",
      "Lat": 45.68,
      "Lon": -111.05,
      "IsHub": false,
      "ZoomLevels": [
        -3,
        1,
        2,
        3,
        4,
        5,
        6
      ],
      "CodeShareCity": false,
      "CustomIcon": null,
      "LabelPosition": "BR",
      "Priority": 0
    },
    {
      "Code": "CAE",
      "CountryCode": "US",
      "Name": "Columbia",
      "Lat": 34,
      "Lon": -81.03,
      "IsHub": false,
      "ZoomLevels": [
        -3,
        1,
        2,
        3,
        4,
        5,
        6
      ],
      "CodeShareCity": false,
      "CustomIcon": null,
      "LabelPosition": "BR",
      "Priority": 0
    },
    {
      "Code": "CAK",
      "CountryCode": "US",
      "Name": "Akron/Canton",
      "Lat": 40.91,
      "Lon": -81.44,
      "IsHub": false,
      "ZoomLevels": [
        -3,
        1,
        2,
        3,
        4,
        5,
        6
      ],
      "CodeShareCity": false,
      "CustomIcon": null,
      "LabelPosition": "BR",
      "Priority": 0
    },
    {
      "Code": "CAN",
      "CountryCode": "CN",
      "Name": "Guangzhou",
      "Lat": 23.13,
      "Lon": 113.27,
      "IsHub": false,
      "ZoomLevels": [
        -3,
        1,
        2,
        3,
        4,
        5,
        6
      ],
      "CodeShareCity": false,
      "CustomIcon": null,
      "LabelPosition": "BR",
      "Priority": 0
    },
    {
      "Code": "CAP",
      "CountryCode": "HT",
      "Name": "Cap-Haitien",
      "Lat": 19.73,
      "Lon": -72.2,
      "IsHub": false,
      "ZoomLevels": [
        -3,
        1,
        2,
        3,
        4,
        5,
        6
      ],
      "CodeShareCity": false,
      "CustomIcon": null,
      "LabelPosition": "BR",
      "Priority": 0
    },
    {
      "Code": "CBR",
      "CountryCode": "AU",
      "Name": "Canberra",
      "Lat": -35.31,
      "Lon": 149.13,
      "IsHub": false,
      "ZoomLevels": [
        -3,
        1,
        2,
        3,
        4,
        5,
        6
      ],
      "CodeShareCity": false,
      "CustomIcon": null,
      "LabelPosition": "BR",
      "Priority": 0
    },
    {
      "Code": "CCP",
      "CountryCode": "CL",
      "Name": "Concepcion",
      "Lat": -36.77,
      "Lon": -73.06,
      "IsHub": false,
      "ZoomLevels": [
        -3,
        1,
        2,
        3,
        4,
        5,
        6
      ],
      "CodeShareCity": false,
      "CustomIcon": null,
      "LabelPosition": "BR",
      "Priority": 0
    },
    {
      "Code": "CCS",
      "CountryCode": "VE",
      "Name": "Caracas",
      "Lat": 10.49,
      "Lon": -66.9,
      "IsHub": false,
      "ZoomLevels": [
        -3,
        1,
        2,
        3,
        4,
        5,
        6
      ],
      "CodeShareCity": false,
      "CustomIcon": null,
      "LabelPosition": "BR",
      "Priority": 0
    },
    {
      "Code": "CFG",
      "CountryCode": "CU",
      "Name": "Cienfuegos",
      "Lat": 22.15,
      "Lon": -80.41,
      "IsHub": false,
      "ZoomLevels": [
        -3,
        1,
        2,
        3,
        4,
        5,
        6
      ],
      "CodeShareCity": false,
      "CustomIcon": null,
      "LabelPosition": "BR",
      "Priority": 0
    },
    {
      "Code": "CFS",
      "CountryCode": "AU",
      "Name": "Coffs Harbour",
      "Lat": -30.32,
      "Lon": 153.12,
      "IsHub": false,
      "ZoomLevels": [
        -3,
        1,
        2,
        3,
        4,
        5,
        6
      ],
      "CodeShareCity": false,
      "CustomIcon": null,
      "LabelPosition": "BR",
      "Priority": 0
    },
    {
      "Code": "CGI",
      "CountryCode": "US",
      "Name": "Cape Girardeau",
      "Lat": 37.31,
      "Lon": -89.52,
      "IsHub": false,
      "ZoomLevels": [
        -3,
        1,
        2,
        3,
        4,
        5,
        6
      ],
      "CodeShareCity": false,
      "CustomIcon": null,
      "LabelPosition": "BR",
      "Priority": 0
    },
    {
      "Code": "CHA",
      "CountryCode": "US",
      "Name": "Chattanooga",
      "Lat": 35.04,
      "Lon": -85.31,
      "IsHub": false,
      "ZoomLevels": [
        -3,
        1,
        2,
        3,
        4,
        5,
        6
      ],
      "CodeShareCity": false,
      "CustomIcon": null,
      "LabelPosition": "BR",
      "Priority": 0
    },
    {
      "Code": "CHC",
      "CountryCode": "NZ",
      "Name": "Christchurch",
      "Lat": -43.53,
      "Lon": 172.64,
      "IsHub": false,
      "ZoomLevels": [
        -3,
        1,
        2,
        3,
        4,
        5,
        6
      ],
      "CodeShareCity": false,
      "CustomIcon": null,
      "LabelPosition": "BR",
      "Priority": 0
    },
    {
      "Code": "CHO",
      "CountryCode": "US",
      "Name": "Charlottesville",
      "Lat": 38.03,
      "Lon": -78.45,
      "IsHub": false,
      "ZoomLevels": [
        -3,
        1,
        2,
        3,
        4,
        5,
        6
      ],
      "CodeShareCity": false,
      "CustomIcon": null,
      "LabelPosition": "BR",
      "Priority": 0
    },
    {
      "Code": "CHS",
      "CountryCode": "US",
      "Name": "Charleston",
      "Lat": 32.78,
      "Lon": -79.93,
      "IsHub": false,
      "ZoomLevels": [
        -3,
        1,
        2,
        3,
        4,
        5,
        6
      ],
      "CodeShareCity": false,
      "CustomIcon": null,
      "LabelPosition": "BR",
      "Priority": 0
    },
    {
      "Code": "CID",
      "CountryCode": "US",
      "Name": "Cedar Rapids",
      "Lat": 41.98,
      "Lon": -91.71,
      "IsHub": false,
      "ZoomLevels": [
        -3,
        1,
        2,
        3,
        4,
        5,
        6
      ],
      "CodeShareCity": false,
      "CustomIcon": null,
      "LabelPosition": "BR",
      "Priority": 0
    },
    {
      "Code": "CLE",
      "CountryCode": "US",
      "Name": "Cleveland",
      "Lat": 41.5,
      "Lon": -81.7,
      "IsHub": false,
      "ZoomLevels": [
        -3,
        1,
        2,
        3,
        4,
        5,
        6
      ],
      "CodeShareCity": false,
      "CustomIcon": null,
      "LabelPosition": "BR",
      "Priority": 0
    },
    {
      "Code": "CLL",
      "CountryCode": "US",
      "Name": "College Station",
      "Lat": 30.59,
      "Lon": -96.36,
      "IsHub": false,
      "ZoomLevels": [
        -3,
        1,
        2,
        3,
        4,
        5,
        6
      ],
      "CodeShareCity": false,
      "CustomIcon": null,
      "LabelPosition": "BR",
      "Priority": 0
    },
    {
      "Code": "CLO",
      "CountryCode": "CO",
      "Name": "Cali",
      "Lat": 3.42,
      "Lon": -76.52,
      "IsHub": false,
      "ZoomLevels": [
        -3,
        1,
        2,
        3,
        4,
        5,
        6
      ],
      "CodeShareCity": false,
      "CustomIcon": null,
      "LabelPosition": "BR",
      "Priority": 0
    },
    {
      "Code": "CMB",
      "CountryCode": "LK",
      "Name": "Colombo",
      "Lat": 6.92,
      "Lon": 79.87,
      "IsHub": false,
      "ZoomLevels": [
        -3,
        1,
        2,
        3,
        4,
        5,
        6
      ],
      "CodeShareCity": false,
      "CustomIcon": null,
      "LabelPosition": "BR",
      "Priority": 0
    },
    {
      "Code": "CMH",
      "CountryCode": "US",
      "Name": "Columbus",
      "Lat": 39.96,
      "Lon": -83,
      "IsHub": false,
      "ZoomLevels": [
        -3,
        1,
        2,
        3,
        4,
        5,
        6
      ],
      "CodeShareCity": false,
      "CustomIcon": null,
      "LabelPosition": "BR",
      "Priority": 0
    },
    {
      "Code": "CMI",
      "CountryCode": "US",
      "Name": "Champaign/Urbana",
      "Lat": 40.12,
      "Lon": -88.28,
      "IsHub": false,
      "ZoomLevels": [
        -3,
        1,
        2,
        3,
        4,
        5,
        6
      ],
      "CodeShareCity": false,
      "CustomIcon": null,
      "LabelPosition": "BR",
      "Priority": 0
    },
    {
      "Code": "CMW",
      "CountryCode": "CU",
      "Name": "Camaguey",
      "Lat": 21.42,
      "Lon": -77.91,
      "IsHub": false,
      "ZoomLevels": [
        -3,
        1,
        2,
        3,
        4,
        5,
        6
      ],
      "CodeShareCity": false,
      "CustomIcon": null,
      "LabelPosition": "BR",
      "Priority": 0
    },
    {
      "Code": "CNS",
      "CountryCode": "AU",
      "Name": "Cairns",
      "Lat": -16.88,
      "Lon": 145.75,
      "IsHub": false,
      "ZoomLevels": [
        -3,
        1,
        2,
        3,
        4,
        5,
        6
      ],
      "CodeShareCity": false,
      "CustomIcon": null,
      "LabelPosition": "BR",
      "Priority": 0
    },
    {
      "Code": "COR",
      "CountryCode": "AR",
      "Name": "Cordoba",
      "Lat": -31.4,
      "Lon": -64.2,
      "IsHub": false,
      "ZoomLevels": [
        -3,
        1,
        2,
        3,
        4,
        5,
        6
      ],
      "CodeShareCity": false,
      "CustomIcon": null,
      "LabelPosition": "BR",
      "Priority": 0
    },
    {
      "Code": "COS",
      "CountryCode": "US",
      "Name": "Colorado Springs",
      "Lat": 38.81,
      "Lon": -104.82,
      "IsHub": false,
      "ZoomLevels": [
        -3,
        1,
        2,
        3,
        4,
        5,
        6
      ],
      "CodeShareCity": false,
      "CustomIcon": null,
      "LabelPosition": "BR",
      "Priority": 0
    },
    {
      "Code": "COU",
      "CountryCode": "US",
      "Name": "Columbia",
      "Lat": 38.95,
      "Lon": -92.33,
      "IsHub": false,
      "ZoomLevels": [
        -3,
        1,
        2,
        3,
        4,
        5,
        6
      ],
      "CodeShareCity": false,
      "CustomIcon": null,
      "LabelPosition": "BR",
      "Priority": 0
    },
    {
      "Code": "CPH",
      "CountryCode": "DK",
      "Name": "Copenhagen",
      "Lat": 55.68,
      "Lon": 12.57,
      "IsHub": false,
      "ZoomLevels": [
        -3,
        1,
        2,
        3,
        4,
        5,
        6
      ],
      "CodeShareCity": false,
      "CustomIcon": null,
      "LabelPosition": "BR",
      "Priority": 0
    },
    {
      "Code": "CPT",
      "CountryCode": "ZA",
      "Name": "Cape Town",
      "Lat": -33.96,
      "Lon": 18.42,
      "IsHub": false,
      "ZoomLevels": [
        -3,
        1,
        2,
        3,
        4,
        5,
        6
      ],
      "CodeShareCity": false,
      "CustomIcon": null,
      "LabelPosition": "BR",
      "Priority": 0
    },
    {
      "Code": "CRP",
      "CountryCode": "US",
      "Name": "Corpus Christi",
      "Lat": 27.77,
      "Lon": -97.4,
      "IsHub": false,
      "ZoomLevels": [
        -3,
        1,
        2,
        3,
        4,
        5,
        6
      ],
      "CodeShareCity": false,
      "CustomIcon": null,
      "LabelPosition": "BR",
      "Priority": 0
    },
    {
      "Code": "CRW",
      "CountryCode": "US",
      "Name": "Charleston",
      "Lat": 38.37,
      "Lon": -81.59,
      "IsHub": false,
      "ZoomLevels": [
        -3,
        1,
        2,
        3,
        4,
        5,
        6
      ],
      "CodeShareCity": false,
      "CustomIcon": null,
      "LabelPosition": "BR",
      "Priority": 0
    },
    {
      "Code": "CUE",
      "CountryCode": "EC",
      "Name": "Cuenca",
      "Lat": -2.87,
      "Lon": -78.98,
      "IsHub": false,
      "ZoomLevels": [
        -3,
        1,
        2,
        3,
        4,
        5,
        6
      ],
      "CodeShareCity": false,
      "CustomIcon": null,
      "LabelPosition": "BR",
      "Priority": 0
    },
    {
      "Code": "CUN",
      "CountryCode": "MX",
      "Name": "Cancun",
      "Lat": 21.16,
      "Lon": -86.87,
      "IsHub": false,
      "ZoomLevels": [
        -3,
        1,
        2,
        3,
        4,
        5,
        6
      ],
      "CodeShareCity": false,
      "CustomIcon": null,
      "LabelPosition": "BR",
      "Priority": 0
    },
    {
      "Code": "CUR",
      "CountryCode": "CW",
      "Name": "Curacao",
      "Lat": 12.19,
      "Lon": -68.96,
      "IsHub": false,
      "ZoomLevels": [
        -3,
        1,
        2,
        3,
        4,
        5,
        6
      ],
      "CodeShareCity": false,
      "CustomIcon": null,
      "LabelPosition": "BR",
      "Priority": 0
    },
    {
      "Code": "CUU",
      "CountryCode": "MX",
      "Name": "Chihuahua",
      "Lat": 28.65,
      "Lon": -106.09,
      "IsHub": false,
      "ZoomLevels": [
        -3,
        1,
        2,
        3,
        4,
        5,
        6
      ],
      "CodeShareCity": false,
      "CustomIcon": null,
      "LabelPosition": "BR",
      "Priority": 0
    },
    {
      "Code": "CUZ",
      "CountryCode": "PE",
      "Name": "Cusco",
      "Lat": -13.53,
      "Lon": -71.96,
      "IsHub": false,
      "ZoomLevels": [
        -3,
        1,
        2,
        3,
        4,
        5,
        6
      ],
      "CodeShareCity": false,
      "CustomIcon": null,
      "LabelPosition": "BR",
      "Priority": 0
    },
    {
      "Code": "CVG",
      "CountryCode": "US",
      "Name": "Cincinnati",
      "Lat": 39.1,
      "Lon": -84.51,
      "IsHub": false,
      "ZoomLevels": [
        -3,
        1,
        2,
        3,
        4,
        5,
        6
      ],
      "CodeShareCity": false,
      "CustomIcon": null,
      "LabelPosition": "BR",
      "Priority": 0
    },
    {
      "Code": "CWB",
      "CountryCode": "BR",
      "Name": "Curitiba",
      "Lat": -25.43,
      "Lon": -49.27,
      "IsHub": false,
      "ZoomLevels": [
        -3,
        1,
        2,
        3,
        4,
        5,
        6
      ],
      "CodeShareCity": false,
      "CustomIcon": null,
      "LabelPosition": "BR",
      "Priority": 0
    },
    {
      "Code": "CZM",
      "CountryCode": "MX",
      "Name": "Cozumel",
      "Lat": 20.42,
      "Lon": -86.93,
      "IsHub": false,
      "ZoomLevels": [
        -3,
        1,
        2,
        3,
        4,
        5,
        6
      ],
      "CodeShareCity": false,
      "CustomIcon": null,
      "LabelPosition": "BR",
      "Priority": 0
    },
    {
      "Code": "DAB",
      "CountryCode": "US",
      "Name": "Daytona Beach",
      "Lat": 29.18,
      "Lon": -81.05,
      "IsHub": false,
      "ZoomLevels": [
        -3,
        1,
        2,
        3,
        4,
        5,
        6
      ],
      "CodeShareCity": false,
      "CustomIcon": null,
      "LabelPosition": "BR",
      "Priority": 0
    },
    {
      "Code": "DAR",
      "CountryCode": "TZ",
      "Name": "Dar Es Salaam",
      "Lat": -6.82,
      "Lon": 39.27,
      "IsHub": false,
      "ZoomLevels": [
        -3,
        1,
        2,
        3,
        4,
        5,
        6
      ],
      "CodeShareCity": false,
      "CustomIcon": null,
      "LabelPosition": "BR",
      "Priority": 0
    },
    {
      "Code": "DAY",
      "CountryCode": "US",
      "Name": "Dayton",
      "Lat": 39.76,
      "Lon": -84.19,
      "IsHub": false,
      "ZoomLevels": [
        -3,
        1,
        2,
        3,
        4,
        5,
        6
      ],
      "CodeShareCity": false,
      "CustomIcon": null,
      "LabelPosition": "BR",
      "Priority": 0
    },
    {
      "Code": "DBQ",
      "CountryCode": "US",
      "Name": "Dubuque",
      "Lat": 42.5,
      "Lon": -90.66,
      "IsHub": false,
      "ZoomLevels": [
        -3,
        1,
        2,
        3,
        4,
        5,
        6
      ],
      "CodeShareCity": false,
      "CustomIcon": null,
      "LabelPosition": "BR",
      "Priority": 0
    },
    {
      "Code": "DEL",
      "CountryCode": "IN",
      "Name": "Delhi",
      "Lat": 28.64,
      "Lon": 77.22,
      "IsHub": false,
      "ZoomLevels": [
        -3,
        1,
        2,
        3,
        4,
        5,
        6
      ],
      "CodeShareCity": false,
      "CustomIcon": null,
      "LabelPosition": "BR",
      "Priority": 0
    },
    {
      "Code": "DEN",
      "CountryCode": "US",
      "Name": "Denver",
      "Lat": 39.74,
      "Lon": -104.98,
      "IsHub": false,
      "ZoomLevels": [
        -3,
        1,
        2,
        3,
        4,
        5,
        6
      ],
      "CodeShareCity": false,
      "CustomIcon": null,
      "LabelPosition": "BR",
      "Priority": 0
    },
    {
      "Code": "DKR",
      "CountryCode": "SN",
      "Name": "Dakar",
      "Lat": 14.74,
      "Lon": -17.37,
      "IsHub": false,
      "ZoomLevels": [
        -3,
        1,
        2,
        3,
        4,
        5,
        6
      ],
      "CodeShareCity": false,
      "CustomIcon": null,
      "LabelPosition": "BR",
      "Priority": 0
    },
    {
      "Code": "DOH",
      "CountryCode": "QA",
      "Name": "Doha",
      "Lat": 25.26,
      "Lon": 51.57,
      "IsHub": false,
      "ZoomLevels": [
        -3,
        1,
        2,
        3,
        4,
        5,
        6
      ],
      "CodeShareCity": false,
      "CustomIcon": null,
      "LabelPosition": "BR",
      "Priority": 0
    },
    {
      "Code": "DOM",
      "CountryCode": "DM",
      "Name": "Dominica",
      "Lat": 15.41,
      "Lon": -61.37,
      "IsHub": false,
      "ZoomLevels": [
        -3,
        1,
        2,
        3,
        4,
        5,
        6
      ],
      "CodeShareCity": false,
      "CustomIcon": null,
      "LabelPosition": "BR",
      "Priority": 0
    },
    {
      "Code": "DPS",
      "CountryCode": "ID",
      "Name": "Denpasar-Bali",
      "Lat": -8.66,
      "Lon": 115.22,
      "IsHub": false,
      "ZoomLevels": [
        -3,
        1,
        2,
        3,
        4,
        5,
        6
      ],
      "CodeShareCity": false,
      "CustomIcon": null,
      "LabelPosition": "BR",
      "Priority": 0
    },
    {
      "Code": "DRO",
      "CountryCode": "US",
      "Name": "Durango",
      "Lat": 37.28,
      "Lon": -107.88,
      "IsHub": false,
      "ZoomLevels": [
        -3,
        1,
        2,
        3,
        4,
        5,
        6
      ],
      "CodeShareCity": false,
      "CustomIcon": null,
      "LabelPosition": "BR",
      "Priority": 0
    },
    {
      "Code": "DRW",
      "CountryCode": "AU",
      "Name": "Darwin",
      "Lat": -12.42,
      "Lon": 130.87,
      "IsHub": false,
      "ZoomLevels": [
        -3,
        1,
        2,
        3,
        4,
        5,
        6
      ],
      "CodeShareCity": false,
      "CustomIcon": null,
      "LabelPosition": "BR",
      "Priority": 0
    },
    {
      "Code": "DSM",
      "CountryCode": "US",
      "Name": "Des Moines",
      "Lat": 41.6,
      "Lon": -93.61,
      "IsHub": false,
      "ZoomLevels": [
        -3,
        1,
        2,
        3,
        4,
        5,
        6
      ],
      "CodeShareCity": false,
      "CustomIcon": null,
      "LabelPosition": "BR",
      "Priority": 0
    },
    {
      "Code": "DTT",
      "CountryCode": "US",
      "Name": "Detroit",
      "Lat": 42.33,
      "Lon": -83.02,
      "IsHub": false,
      "ZoomLevels": [
        -3,
        1,
        2,
        3,
        4,
        5,
        6
      ],
      "CodeShareCity": false,
      "CustomIcon": null,
      "LabelPosition": "BR",
      "Priority": 0
    },
    {
      "Code": "DUB",
      "CountryCode": "IE",
      "Name": "Dublin",
      "Lat": 53.35,
      "Lon": -6.25,
      "IsHub": false,
      "ZoomLevels": [
        -3,
        1,
        2,
        3,
        4,
        5,
        6
      ],
      "CodeShareCity": false,
      "CustomIcon": null,
      "LabelPosition": "BR",
      "Priority": 0
    },
    {
      "Code": "DUS",
      "CountryCode": "DE",
      "Name": "Duesseldorf",
      "Lat": 51.23,
      "Lon": 6.77,
      "IsHub": false,
      "ZoomLevels": [
        -3,
        1,
        2,
        3,
        4,
        5,
        6
      ],
      "CodeShareCity": false,
      "CustomIcon": null,
      "LabelPosition": "BR",
      "Priority": 0
    },
    {
      "Code": "DXB",
      "CountryCode": "AE",
      "Name": "Dubai",
      "Lat": 25.25,
      "Lon": 55.36,
      "IsHub": false,
      "ZoomLevels": [
        -3,
        1,
        2,
        3,
        4,
        5,
        6
      ],
      "CodeShareCity": false,
      "CustomIcon": null,
      "LabelPosition": "BR",
      "Priority": 0
    },
    {
      "Code": "EAP",
      "CountryCode": "CH",
      "Name": "Basel/Mulhouse",
      "Lat": 47.59,
      "Lon": 7.53,
      "IsHub": false,
      "ZoomLevels": [
        -3,
        1,
        2,
        3,
        4,
        5,
        6
      ],
      "CodeShareCity": false,
      "CustomIcon": null,
      "LabelPosition": "BR",
      "Priority": 0
    },
    {
      "Code": "EAS",
      "CountryCode": "ES",
      "Name": "San Sebastian",
      "Lat": 43.36,
      "Lon": -1.98,
      "IsHub": false,
      "ZoomLevels": [
        -3,
        1,
        2,
        3,
        4,
        5,
        6
      ],
      "CodeShareCity": false,
      "CustomIcon": null,
      "LabelPosition": "BR",
      "Priority": 0
    },
    {
      "Code": "EAT",
      "CountryCode": "US",
      "Name": "Wenatchee",
      "Lat": 47.4,
      "Lon": -120.31,
      "IsHub": false,
      "ZoomLevels": [
        -3,
        1,
        2,
        3,
        4,
        5,
        6
      ],
      "CodeShareCity": false,
      "CustomIcon": null,
      "LabelPosition": "BR",
      "Priority": 0
    },
    {
      "Code": "EDI",
      "CountryCode": "GB",
      "Name": "Edinburgh",
      "Lat": 55.95,
      "Lon": -3.21,
      "IsHub": false,
      "ZoomLevels": [
        -3,
        1,
        2,
        3,
        4,
        5,
        6
      ],
      "CodeShareCity": false,
      "CustomIcon": null,
      "LabelPosition": "BR",
      "Priority": 0
    },
    {
      "Code": "EGE",
      "CountryCode": "US",
      "Name": "Vail/Eagle",
      "Lat": 39.64,
      "Lon": -106.37,
      "IsHub": false,
      "ZoomLevels": [
        -3,
        1,
        2,
        3,
        4,
        5,
        6
      ],
      "CodeShareCity": false,
      "CustomIcon": null,
      "LabelPosition": "BR",
      "Priority": 0
    },
    {
      "Code": "ELH",
      "CountryCode": "BS",
      "Name": "North Eleuthera",
      "Lat": 25.47,
      "Lon": -76.69,
      "IsHub": false,
      "ZoomLevels": [
        -3,
        1,
        2,
        3,
        4,
        5,
        6
      ],
      "CodeShareCity": false,
      "CustomIcon": null,
      "LabelPosition": "BR",
      "Priority": 0
    },
    {
      "Code": "ELM",
      "CountryCode": "US",
      "Name": "Elmira/Corning",
      "Lat": 42.09,
      "Lon": -76.81,
      "IsHub": false,
      "ZoomLevels": [
        -3,
        1,
        2,
        3,
        4,
        5,
        6
      ],
      "CodeShareCity": false,
      "CustomIcon": null,
      "LabelPosition": "BR",
      "Priority": 0
    },
    {
      "Code": "ELP",
      "CountryCode": "US",
      "Name": "El Paso",
      "Lat": 31.8,
      "Lon": -106.5,
      "IsHub": false,
      "ZoomLevels": [
        -3,
        1,
        2,
        3,
        4,
        5,
        6
      ],
      "CodeShareCity": false,
      "CustomIcon": null,
      "LabelPosition": "BR",
      "Priority": 0
    },
    {
      "Code": "ERI",
      "CountryCode": "US",
      "Name": "Erie",
      "Lat": 42.13,
      "Lon": -80.09,
      "IsHub": false,
      "ZoomLevels": [
        -3,
        1,
        2,
        3,
        4,
        5,
        6
      ],
      "CodeShareCity": false,
      "CustomIcon": null,
      "LabelPosition": "BR",
      "Priority": 0
    },
    {
      "Code": "EUG",
      "CountryCode": "US",
      "Name": "Eugene",
      "Lat": 44.05,
      "Lon": -123.09,
      "IsHub": false,
      "ZoomLevels": [
        -3,
        1,
        2,
        3,
        4,
        5,
        6
      ],
      "CodeShareCity": false,
      "CustomIcon": null,
      "LabelPosition": "BR",
      "Priority": 0
    },
    {
      "Code": "EVV",
      "CountryCode": "US",
      "Name": "Evansville",
      "Lat": 37.97,
      "Lon": -87.53,
      "IsHub": false,
      "ZoomLevels": [
        -3,
        1,
        2,
        3,
        4,
        5,
        6
      ],
      "CodeShareCity": false,
      "CustomIcon": null,
      "LabelPosition": "BR",
      "Priority": 0
    },
    {
      "Code": "EWN",
      "CountryCode": "US",
      "Name": "New Bern",
      "Lat": 35.07,
      "Lon": -77.04,
      "IsHub": false,
      "ZoomLevels": [
        -3,
        1,
        2,
        3,
        4,
        5,
        6
      ],
      "CodeShareCity": false,
      "CustomIcon": null,
      "LabelPosition": "BR",
      "Priority": 0
    },
    {
      "Code": "EYW",
      "CountryCode": "US",
      "Name": "Key West",
      "Lat": 24.56,
      "Lon": -81.76,
      "IsHub": false,
      "ZoomLevels": [
        -3,
        1,
        2,
        3,
        4,
        5,
        6
      ],
      "CodeShareCity": false,
      "CustomIcon": null,
      "LabelPosition": "BR",
      "Priority": 0
    },
    {
      "Code": "FAI",
      "CountryCode": "US",
      "Name": "Fairbanks",
      "Lat": 64.81,
      "Lon": -147.72,
      "IsHub": false,
      "ZoomLevels": [
        -3,
        1,
        2,
        3,
        4,
        5,
        6
      ],
      "CodeShareCity": false,
      "CustomIcon": null,
      "LabelPosition": "BR",
      "Priority": 0
    },
    {
      "Code": "FAR",
      "CountryCode": "US",
      "Name": "Fargo",
      "Lat": 46.92,
      "Lon": -96.81,
      "IsHub": false,
      "ZoomLevels": [
        -3,
        1,
        2,
        3,
        4,
        5,
        6
      ],
      "CodeShareCity": false,
      "CustomIcon": null,
      "LabelPosition": "BR",
      "Priority": 0
    },
    {
      "Code": "FAT",
      "CountryCode": "US",
      "Name": "Fresno",
      "Lat": 36.77,
      "Lon": -119.77,
      "IsHub": false,
      "ZoomLevels": [
        -3,
        1,
        2,
        3,
        4,
        5,
        6
      ],
      "CodeShareCity": false,
      "CustomIcon": null,
      "LabelPosition": "BR",
      "Priority": 0
    },
    {
      "Code": "FAY",
      "CountryCode": "US",
      "Name": "Fayetteville",
      "Lat": 35.05,
      "Lon": -78.88,
      "IsHub": false,
      "ZoomLevels": [
        -3,
        1,
        2,
        3,
        4,
        5,
        6
      ],
      "CodeShareCity": false,
      "CustomIcon": null,
      "LabelPosition": "BR",
      "Priority": 0
    },
    {
      "Code": "FCA",
      "CountryCode": "US",
      "Name": "Kalispell",
      "Lat": 48.2,
      "Lon": -114.32,
      "IsHub": false,
      "ZoomLevels": [
        -3,
        1,
        2,
        3,
        4,
        5,
        6
      ],
      "CodeShareCity": false,
      "CustomIcon": null,
      "LabelPosition": "BR",
      "Priority": 0
    },
    {
      "Code": "FDF",
      "CountryCode": "MQ",
      "Name": "Fort-de-France",
      "Lat": 14.59,
      "Lon": -61.07,
      "IsHub": false,
      "ZoomLevels": [
        -3,
        1,
        2,
        3,
        4,
        5,
        6
      ],
      "CodeShareCity": false,
      "CustomIcon": null,
      "LabelPosition": "BR",
      "Priority": 0
    },
    {
      "Code": "FLL",
      "CountryCode": "US",
      "Name": "Fort Lauderdale",
      "Lat": 26.12,
      "Lon": -80.15,
      "IsHub": false,
      "ZoomLevels": [
        -3,
        1,
        2,
        3,
        4,
        5,
        6
      ],
      "CodeShareCity": false,
      "CustomIcon": null,
      "LabelPosition": "BR",
      "Priority": 0
    },
    {
      "Code": "FLN",
      "CountryCode": "BR",
      "Name": "Florianopolis",
      "Lat": -27.6,
      "Lon": -48.55,
      "IsHub": false,
      "ZoomLevels": [
        -3,
        1,
        2,
        3,
        4,
        5,
        6
      ],
      "CodeShareCity": false,
      "CustomIcon": null,
      "LabelPosition": "BR",
      "Priority": 0
    },
    {
      "Code": "FLO",
      "CountryCode": "US",
      "Name": "Florence",
      "Lat": 34.2,
      "Lon": -79.76,
      "IsHub": false,
      "ZoomLevels": [
        -3,
        1,
        2,
        3,
        4,
        5,
        6
      ],
      "CodeShareCity": false,
      "CustomIcon": null,
      "LabelPosition": "BR",
      "Priority": 0
    },
    {
      "Code": "FMY",
      "CountryCode": "US",
      "Name": "Fort Myers",
      "Lat": 26.64,
      "Lon": -81.87,
      "IsHub": false,
      "ZoomLevels": [
        -3,
        1,
        2,
        3,
        4,
        5,
        6
      ],
      "CodeShareCity": false,
      "CustomIcon": null,
      "LabelPosition": "BR",
      "Priority": 0
    },
    {
      "Code": "FNT",
      "CountryCode": "US",
      "Name": "Flint",
      "Lat": 43.01,
      "Lon": -83.69,
      "IsHub": false,
      "ZoomLevels": [
        -3,
        1,
        2,
        3,
        4,
        5,
        6
      ],
      "CodeShareCity": false,
      "CustomIcon": null,
      "LabelPosition": "BR",
      "Priority": 0
    },
    {
      "Code": "FOC",
      "CountryCode": "CN",
      "Name": "Fuzhou",
      "Lat": 26.1,
      "Lon": 119.28,
      "IsHub": false,
      "ZoomLevels": [
        -3,
        1,
        2,
        3,
        4,
        5,
        6
      ],
      "CodeShareCity": false,
      "CustomIcon": null,
      "LabelPosition": "BR",
      "Priority": 0
    },
    {
      "Code": "FOR",
      "CountryCode": "BR",
      "Name": "Fortaleza",
      "Lat": -3.72,
      "Lon": -38.53,
      "IsHub": false,
      "ZoomLevels": [
        -3,
        1,
        2,
        3,
        4,
        5,
        6
      ],
      "CodeShareCity": false,
      "CustomIcon": null,
      "LabelPosition": "BR",
      "Priority": 0
    },
    {
      "Code": "FPO",
      "CountryCode": "BS",
      "Name": "Freeport",
      "Lat": 26.56,
      "Lon": -78.7,
      "IsHub": false,
      "ZoomLevels": [
        -3,
        1,
        2,
        3,
        4,
        5,
        6
      ],
      "CodeShareCity": false,
      "CustomIcon": null,
      "LabelPosition": "BR",
      "Priority": 0
    },
    {
      "Code": "FRA",
      "CountryCode": "DE",
      "Name": "Frankfurt",
      "Lat": 50.11,
      "Lon": 8.69,
      "IsHub": false,
      "ZoomLevels": [
        -3,
        1,
        2,
        3,
        4,
        5,
        6
      ],
      "CodeShareCity": false,
      "CustomIcon": null,
      "LabelPosition": "BR",
      "Priority": 0
    },
    {
      "Code": "FSD",
      "CountryCode": "US",
      "Name": "Sioux Falls",
      "Lat": 43.58,
      "Lon": -96.74,
      "IsHub": false,
      "ZoomLevels": [
        -3,
        1,
        2,
        3,
        4,
        5,
        6
      ],
      "CodeShareCity": false,
      "CustomIcon": null,
      "LabelPosition": "BR",
      "Priority": 0
    },
    {
      "Code": "FSM",
      "CountryCode": "US",
      "Name": "Fort Smith",
      "Lat": 35.39,
      "Lon": -94.37,
      "IsHub": false,
      "ZoomLevels": [
        -3,
        1,
        2,
        3,
        4,
        5,
        6
      ],
      "CodeShareCity": false,
      "CustomIcon": null,
      "LabelPosition": "BR",
      "Priority": 0
    },
    {
      "Code": "FUE",
      "CountryCode": "ES",
      "Name": "Fuerteventura",
      "Lat": 28.4,
      "Lon": -14.01,
      "IsHub": false,
      "ZoomLevels": [
        -3,
        1,
        2,
        3,
        4,
        5,
        6
      ],
      "CodeShareCity": false,
      "CustomIcon": null,
      "LabelPosition": "BR",
      "Priority": 0
    },
    {
      "Code": "FUK",
      "CountryCode": "JP",
      "Name": "Fukuoka",
      "Lat": 33.58,
      "Lon": 130.4,
      "IsHub": false,
      "ZoomLevels": [
        -3,
        1,
        2,
        3,
        4,
        5,
        6
      ],
      "CodeShareCity": false,
      "CustomIcon": null,
      "LabelPosition": "BR",
      "Priority": 0
    },
    {
      "Code": "FWA",
      "CountryCode": "US",
      "Name": "Fort Wayne",
      "Lat": 41.08,
      "Lon": -85.14,
      "IsHub": false,
      "ZoomLevels": [
        -3,
        1,
        2,
        3,
        4,
        5,
        6
      ],
      "CodeShareCity": false,
      "CustomIcon": null,
      "LabelPosition": "BR",
      "Priority": 0
    },
    {
      "Code": "FYV",
      "CountryCode": "US",
      "Name": "Fayetteville/Springdale",
      "Lat": 36.06,
      "Lon": -94.17,
      "IsHub": false,
      "ZoomLevels": [
        -3,
        1,
        2,
        3,
        4,
        5,
        6
      ],
      "CodeShareCity": false,
      "CustomIcon": null,
      "LabelPosition": "BR",
      "Priority": 0
    },
    {
      "Code": "GCK",
      "CountryCode": "US",
      "Name": "Garden City",
      "Lat": 37.93,
      "Lon": -100.87,
      "IsHub": false,
      "ZoomLevels": [
        -3,
        1,
        2,
        3,
        4,
        5,
        6
      ],
      "CodeShareCity": false,
      "CustomIcon": null,
      "LabelPosition": "BR",
      "Priority": 0
    },
    {
      "Code": "GCM",
      "CountryCode": "KY",
      "Name": "Grand Cayman",
      "Lat": 19.29,
      "Lon": -81.24,
      "IsHub": false,
      "ZoomLevels": [
        -3,
        1,
        2,
        3,
        4,
        5,
        6
      ],
      "CodeShareCity": false,
      "CustomIcon": null,
      "LabelPosition": "BR",
      "Priority": 0
    },
    {
      "Code": "GCN",
      "CountryCode": "US",
      "Name": "Flagstaff/ Grand Canyon",
      "Lat": 36.05,
      "Lon": -112.15,
      "IsHub": false,
      "ZoomLevels": [
        -3,
        1,
        2,
        3,
        4,
        5,
        6
      ],
      "CodeShareCity": false,
      "CustomIcon": null,
      "LabelPosition": "BR",
      "Priority": 0
    },
    {
      "Code": "GDL",
      "CountryCode": "MX",
      "Name": "Guadalajara",
      "Lat": 20.67,
      "Lon": -103.31,
      "IsHub": false,
      "ZoomLevels": [
        -3,
        1,
        2,
        3,
        4,
        5,
        6
      ],
      "CodeShareCity": false,
      "CustomIcon": null,
      "LabelPosition": "BR",
      "Priority": 0
    },
    {
      "Code": "GEG",
      "CountryCode": "US",
      "Name": "Spokane",
      "Lat": 47.62,
      "Lon": -117.43,
      "IsHub": false,
      "ZoomLevels": [
        -3,
        1,
        2,
        3,
        4,
        5,
        6
      ],
      "CodeShareCity": false,
      "CustomIcon": null,
      "LabelPosition": "BR",
      "Priority": 0
    },
    {
      "Code": "GGG",
      "CountryCode": "US",
      "Name": "Longview",
      "Lat": 32.5,
      "Lon": -94.72,
      "IsHub": false,
      "ZoomLevels": [
        -3,
        1,
        2,
        3,
        4,
        5,
        6
      ],
      "CodeShareCity": false,
      "CustomIcon": null,
      "LabelPosition": "BR",
      "Priority": 0
    },
    {
      "Code": "GGT",
      "CountryCode": "BS",
      "Name": "George Town",
      "Lat": 23.47,
      "Lon": -75.78,
      "IsHub": false,
      "ZoomLevels": [
        -3,
        1,
        2,
        3,
        4,
        5,
        6
      ],
      "CodeShareCity": false,
      "CustomIcon": null,
      "LabelPosition": "BR",
      "Priority": 0
    },
    {
      "Code": "GIB",
      "CountryCode": "GI",
      "Name": "Gibraltar",
      "Lat": 36.15,
      "Lon": -5.35,
      "IsHub": false,
      "ZoomLevels": [
        -3,
        1,
        2,
        3,
        4,
        5,
        6
      ],
      "CodeShareCity": false,
      "CustomIcon": null,
      "LabelPosition": "BR",
      "Priority": 0
    },
    {
      "Code": "GJT",
      "CountryCode": "US",
      "Name": "Grand Junction",
      "Lat": 39.06,
      "Lon": -108.51,
      "IsHub": false,
      "ZoomLevels": [
        -3,
        1,
        2,
        3,
        4,
        5,
        6
      ],
      "CodeShareCity": false,
      "CustomIcon": null,
      "LabelPosition": "BR",
      "Priority": 0
    },
    {
      "Code": "GLA",
      "CountryCode": "GB",
      "Name": "Glasgow",
      "Lat": 55.87,
      "Lon": -4.25,
      "IsHub": false,
      "ZoomLevels": [
        -3,
        1,
        2,
        3,
        4,
        5,
        6
      ],
      "CodeShareCity": false,
      "CustomIcon": null,
      "LabelPosition": "BR",
      "Priority": 0
    },
    {
      "Code": "GND",
      "CountryCode": "GD",
      "Name": "Grenada",
      "Lat": 12.15,
      "Lon": -61.68,
      "IsHub": false,
      "ZoomLevels": [
        -3,
        1,
        2,
        3,
        4,
        5,
        6
      ],
      "CodeShareCity": false,
      "CustomIcon": null,
      "LabelPosition": "BR",
      "Priority": 0
    },
    {
      "Code": "GNV",
      "CountryCode": "US",
      "Name": "Gainesville",
      "Lat": 29.69,
      "Lon": -82.32,
      "IsHub": false,
      "ZoomLevels": [
        -3,
        1,
        2,
        3,
        4,
        5,
        6
      ],
      "CodeShareCity": false,
      "CustomIcon": null,
      "LabelPosition": "BR",
      "Priority": 0
    },
    {
      "Code": "GOT",
      "CountryCode": "SE",
      "Name": "Gothenburg",
      "Lat": 57.67,
      "Lon": 11.97,
      "IsHub": false,
      "ZoomLevels": [
        -3,
        1,
        2,
        3,
        4,
        5,
        6
      ],
      "CodeShareCity": false,
      "CustomIcon": null,
      "LabelPosition": "BR",
      "Priority": 0
    },
    {
      "Code": "GPS",
      "CountryCode": "EC",
      "Name": "Baltra Island",
      "Lat": -0.43,
      "Lon": -90.28,
      "IsHub": false,
      "ZoomLevels": [
        -3,
        1,
        2,
        3,
        4,
        5,
        6
      ],
      "CodeShareCity": false,
      "CustomIcon": null,
      "LabelPosition": "BR",
      "Priority": 0
    },
    {
      "Code": "GPT",
      "CountryCode": "US",
      "Name": "Gulfport/Biloxi",
      "Lat": 30.41,
      "Lon": -89.07,
      "IsHub": false,
      "ZoomLevels": [
        -3,
        1,
        2,
        3,
        4,
        5,
        6
      ],
      "CodeShareCity": false,
      "CustomIcon": null,
      "LabelPosition": "BR",
      "Priority": 0
    },
    {
      "Code": "GRB",
      "CountryCode": "US",
      "Name": "Green Bay",
      "Lat": 44.49,
      "Lon": -88.02,
      "IsHub": false,
      "ZoomLevels": [
        -3,
        1,
        2,
        3,
        4,
        5,
        6
      ],
      "CodeShareCity": false,
      "CustomIcon": null,
      "LabelPosition": "BR",
      "Priority": 0
    },
    {
      "Code": "GRI",
      "CountryCode": "US",
      "Name": "Grand Island",
      "Lat": 40.97,
      "Lon": -98.31,
      "IsHub": false,
      "ZoomLevels": [
        -3,
        1,
        2,
        3,
        4,
        5,
        6
      ],
      "CodeShareCity": false,
      "CustomIcon": null,
      "LabelPosition": "BR",
      "Priority": 0
    },
    {
      "Code": "GRR",
      "CountryCode": "US",
      "Name": "Grand Rapids",
      "Lat": 42.96,
      "Lon": -85.67,
      "IsHub": false,
      "ZoomLevels": [
        -3,
        1,
        2,
        3,
        4,
        5,
        6
      ],
      "CodeShareCity": false,
      "CustomIcon": null,
      "LabelPosition": "BR",
      "Priority": 0
    },
    {
      "Code": "GRX",
      "CountryCode": "ES",
      "Name": "Granada",
      "Lat": 37.19,
      "Lon": -3.6,
      "IsHub": false,
      "ZoomLevels": [
        -3,
        1,
        2,
        3,
        4,
        5,
        6
      ],
      "CodeShareCity": false,
      "CustomIcon": null,
      "LabelPosition": "BR",
      "Priority": 0
    },
    {
      "Code": "GSO",
      "CountryCode": "US",
      "Name": "Greensboro/High Point",
      "Lat": 36.09,
      "Lon": -79.94,
      "IsHub": false,
      "ZoomLevels": [
        -3,
        1,
        2,
        3,
        4,
        5,
        6
      ],
      "CodeShareCity": false,
      "CustomIcon": null,
      "LabelPosition": "BR",
      "Priority": 0
    },
    {
      "Code": "GSP",
      "CountryCode": "US",
      "Name": "Greenville/Spartanburg",
      "Lat": 34.85,
      "Lon": -82.38,
      "IsHub": false,
      "ZoomLevels": [
        -3,
        1,
        2,
        3,
        4,
        5,
        6
      ],
      "CodeShareCity": false,
      "CustomIcon": null,
      "LabelPosition": "BR",
      "Priority": 0
    },
    {
      "Code": "GUA",
      "CountryCode": "GT",
      "Name": "Guatemala City",
      "Lat": 14.58,
      "Lon": -90.53,
      "IsHub": false,
      "ZoomLevels": [
        -3,
        1,
        2,
        3,
        4,
        5,
        6
      ],
      "CodeShareCity": false,
      "CustomIcon": null,
      "LabelPosition": "BR",
      "Priority": 0
    },
    {
      "Code": "GUC",
      "CountryCode": "US",
      "Name": "Gunnison",
      "Lat": 38.53,
      "Lon": -106.94,
      "IsHub": false,
      "ZoomLevels": [
        -3,
        1,
        2,
        3,
        4,
        5,
        6
      ],
      "CodeShareCity": false,
      "CustomIcon": null,
      "LabelPosition": "BR",
      "Priority": 0
    },
    {
      "Code": "GVA",
      "CountryCode": "CH",
      "Name": "Geneva",
      "Lat": 46.24,
      "Lon": 6.11,
      "IsHub": false,
      "ZoomLevels": [
        -3,
        1,
        2,
        3,
        4,
        5,
        6
      ],
      "CodeShareCity": false,
      "CustomIcon": null,
      "LabelPosition": "BR",
      "Priority": 0
    },
    {
      "Code": "GYE",
      "CountryCode": "EC",
      "Name": "Guayaquil",
      "Lat": -2.15,
      "Lon": -79.88,
      "IsHub": false,
      "ZoomLevels": [
        -3,
        1,
        2,
        3,
        4,
        5,
        6
      ],
      "CodeShareCity": false,
      "CustomIcon": null,
      "LabelPosition": "BR",
      "Priority": 0
    },
    {
      "Code": "GYN",
      "CountryCode": "BR",
      "Name": "Goiania",
      "Lat": -16.69,
      "Lon": -49.26,
      "IsHub": false,
      "ZoomLevels": [
        -3,
        1,
        2,
        3,
        4,
        5,
        6
      ],
      "CodeShareCity": false,
      "CustomIcon": null,
      "LabelPosition": "BR",
      "Priority": 0
    },
    {
      "Code": "HAJ",
      "CountryCode": "DE",
      "Name": "Hannover",
      "Lat": 52.38,
      "Lon": 9.73,
      "IsHub": false,
      "ZoomLevels": [
        -3,
        1,
        2,
        3,
        4,
        5,
        6
      ],
      "CodeShareCity": false,
      "CustomIcon": null,
      "LabelPosition": "BR",
      "Priority": 0
    },
    {
      "Code": "HAM",
      "CountryCode": "DE",
      "Name": "Hamburg",
      "Lat": 53.55,
      "Lon": 9.99,
      "IsHub": false,
      "ZoomLevels": [
        -3,
        1,
        2,
        3,
        4,
        5,
        6
      ],
      "CodeShareCity": false,
      "CustomIcon": null,
      "LabelPosition": "BR",
      "Priority": 0
    },
    {
      "Code": "HAN",
      "CountryCode": "VN",
      "Name": "Hanoi",
      "Lat": 21.04,
      "Lon": 105.89,
      "IsHub": false,
      "ZoomLevels": [
        -3,
        1,
        2,
        3,
        4,
        5,
        6
      ],
      "CodeShareCity": false,
      "CustomIcon": null,
      "LabelPosition": "BR",
      "Priority": 0
    },
    {
      "Code": "HAR",
      "CountryCode": "US",
      "Name": "Harrisburg",
      "Lat": 40.27,
      "Lon": -76.85,
      "IsHub": false,
      "ZoomLevels": [
        -3,
        1,
        2,
        3,
        4,
        5,
        6
      ],
      "CodeShareCity": false,
      "CustomIcon": null,
      "LabelPosition": "BR",
      "Priority": 0
    },
    {
      "Code": "HAV",
      "CountryCode": "CU",
      "Name": "Havana",
      "Lat": 23.12,
      "Lon": -82.41,
      "IsHub": false,
      "ZoomLevels": [
        -3,
        1,
        2,
        3,
        4,
        5,
        6
      ],
      "CodeShareCity": false,
      "CustomIcon": null,
      "LabelPosition": "BR",
      "Priority": 0
    },
    {
      "Code": "HBA",
      "CountryCode": "AU",
      "Name": "Hobart",
      "Lat": -42.88,
      "Lon": 147.32,
      "IsHub": false,
      "ZoomLevels": [
        -3,
        1,
        2,
        3,
        4,
        5,
        6
      ],
      "CodeShareCity": false,
      "CustomIcon": null,
      "LabelPosition": "BR",
      "Priority": 0
    },
    {
      "Code": "HDN",
      "CountryCode": "US",
      "Name": "Hayden",
      "Lat": 40.48,
      "Lon": -107.22,
      "IsHub": false,
      "ZoomLevels": [
        -3,
        1,
        2,
        3,
        4,
        5,
        6
      ],
      "CodeShareCity": false,
      "CustomIcon": null,
      "LabelPosition": "BR",
      "Priority": 0
    },
    {
      "Code": "HEL",
      "CountryCode": "FI",
      "Name": "Helsinki",
      "Lat": 60.17,
      "Lon": 24.97,
      "IsHub": false,
      "ZoomLevels": [
        -3,
        1,
        2,
        3,
        4,
        5,
        6
      ],
      "CodeShareCity": false,
      "CustomIcon": null,
      "LabelPosition": "BR",
      "Priority": 0
    },
    {
      "Code": "HFD",
      "CountryCode": "US",
      "Name": "Hartford",
      "Lat": 41.73,
      "Lon": -72.65,
      "IsHub": false,
      "ZoomLevels": [
        -3,
        1,
        2,
        3,
        4,
        5,
        6
      ],
      "CodeShareCity": false,
      "CustomIcon": null,
      "LabelPosition": "BR",
      "Priority": 0
    },
    {
      "Code": "HHH",
      "CountryCode": "US",
      "Name": "Hilton Head Island",
      "Lat": 32.22,
      "Lon": -80.75,
      "IsHub": false,
      "ZoomLevels": [
        -3,
        1,
        2,
        3,
        4,
        5,
        6
      ],
      "CodeShareCity": false,
      "CustomIcon": null,
      "LabelPosition": "BR",
      "Priority": 0
    },
    {
      "Code": "HIJ",
      "CountryCode": "JP",
      "Name": "Hiroshima",
      "Lat": 34.36,
      "Lon": 132.42,
      "IsHub": false,
      "ZoomLevels": [
        -3,
        1,
        2,
        3,
        4,
        5,
        6
      ],
      "CodeShareCity": false,
      "CustomIcon": null,
      "LabelPosition": "BR",
      "Priority": 0
    },
    {
      "Code": "HKG",
      "CountryCode": "HK",
      "Name": "Hong Kong",
      "Lat": 22.4,
      "Lon": 114.11,
      "IsHub": false,
      "ZoomLevels": [
        -3,
        1,
        2,
        3,
        4,
        5,
        6
      ],
      "CodeShareCity": false,
      "CustomIcon": null,
      "LabelPosition": "BR",
      "Priority": 0
    },
    {
      "Code": "HMO",
      "CountryCode": "MX",
      "Name": "Hermosillo",
      "Lat": 29.1,
      "Lon": -110.95,
      "IsHub": false,
      "ZoomLevels": [
        -3,
        1,
        2,
        3,
        4,
        5,
        6
      ],
      "CodeShareCity": false,
      "CustomIcon": null,
      "LabelPosition": "BR",
      "Priority": 0
    },
    {
      "Code": "HNL",
      "CountryCode": "US",
      "Name": "Honolulu",
      "Lat": 21.33,
      "Lon": -157.86,
      "IsHub": false,
      "ZoomLevels": [
        -3,
        1,
        2,
        3,
        4,
        5,
        6
      ],
      "CodeShareCity": false,
      "CustomIcon": null,
      "LabelPosition": "BR",
      "Priority": 0
    },
    {
      "Code": "HOG",
      "CountryCode": "CU",
      "Name": "Holguin",
      "Lat": 20.89,
      "Lon": -76.26,
      "IsHub": false,
      "ZoomLevels": [
        -3,
        1,
        2,
        3,
        4,
        5,
        6
      ],
      "CodeShareCity": false,
      "CustomIcon": null,
      "LabelPosition": "BR",
      "Priority": 0
    },
    {
      "Code": "HOU",
      "CountryCode": "US",
      "Name": "Houston",
      "Lat": 29.76,
      "Lon": -95.37,
      "IsHub": false,
      "ZoomLevels": [
        -3,
        1,
        2,
        3,
        4,
        5,
        6
      ],
      "CodeShareCity": false,
      "CustomIcon": null,
      "LabelPosition": "BR",
      "Priority": 0
    },
    {
      "Code": "HPN",
      "CountryCode": "US",
      "Name": "White Plains",
      "Lat": 41.12,
      "Lon": -73.79,
      "IsHub": false,
      "ZoomLevels": [
        -3,
        1,
        2,
        3,
        4,
        5,
        6
      ],
      "CodeShareCity": false,
      "CustomIcon": null,
      "LabelPosition": "BR",
      "Priority": 0
    },
    {
      "Code": "HSV",
      "CountryCode": "US",
      "Name": "Huntsville",
      "Lat": 34.73,
      "Lon": -86.59,
      "IsHub": false,
      "ZoomLevels": [
        -3,
        1,
        2,
        3,
        4,
        5,
        6
      ],
      "CodeShareCity": false,
      "CustomIcon": null,
      "LabelPosition": "BR",
      "Priority": 0
    },
    {
      "Code": "HTS",
      "CountryCode": "US",
      "Name": "Huntington/Ashland KY",
      "Lat": 38.42,
      "Lon": -82.45,
      "IsHub": false,
      "ZoomLevels": [
        -3,
        1,
        2,
        3,
        4,
        5,
        6
      ],
      "CodeShareCity": false,
      "CustomIcon": null,
      "LabelPosition": "BR",
      "Priority": 0
    },
    {
      "Code": "HVN",
      "CountryCode": "US",
      "Name": "New Haven",
      "Lat": 41.27,
      "Lon": -72.89,
      "IsHub": false,
      "ZoomLevels": [
        -3,
        1,
        2,
        3,
        4,
        5,
        6
      ],
      "CodeShareCity": false,
      "CustomIcon": null,
      "LabelPosition": "BR",
      "Priority": 0
    },
    {
      "Code": "HYD",
      "CountryCode": "IN",
      "Name": "Hyderabad",
      "Lat": 17.39,
      "Lon": 78.49,
      "IsHub": false,
      "ZoomLevels": [
        -3,
        1,
        2,
        3,
        4,
        5,
        6
      ],
      "CodeShareCity": false,
      "CustomIcon": null,
      "LabelPosition": "BR",
      "Priority": 0
    },
    {
      "Code": "IBZ",
      "CountryCode": "ES",
      "Name": "Ibiza",
      "Lat": 38.87,
      "Lon": 1.43,
      "IsHub": false,
      "ZoomLevels": [
        -3,
        1,
        2,
        3,
        4,
        5,
        6
      ],
      "CodeShareCity": false,
      "CustomIcon": null,
      "LabelPosition": "BR",
      "Priority": 0
    },
    {
      "Code": "ICT",
      "CountryCode": "US",
      "Name": "Wichita",
      "Lat": 37.65,
      "Lon": -97.34,
      "IsHub": false,
      "ZoomLevels": [
        -3,
        1,
        2,
        3,
        4,
        5,
        6
      ],
      "CodeShareCity": false,
      "CustomIcon": null,
      "LabelPosition": "BR",
      "Priority": 0
    },
    {
      "Code": "IFP",
      "CountryCode": "US",
      "Name": "Bullhead City",
      "Lat": 35.18,
      "Lon": -114.58,
      "IsHub": false,
      "ZoomLevels": [
        -3,
        1,
        2,
        3,
        4,
        5,
        6
      ],
      "CodeShareCity": false,
      "CustomIcon": null,
      "LabelPosition": "BR",
      "Priority": 0
    },
    {
      "Code": "IGU",
      "CountryCode": "BR",
      "Name": "Foz do Iguacu",
      "Lat": -25.55,
      "Lon": -54.59,
      "IsHub": false,
      "ZoomLevels": [
        -3,
        1,
        2,
        3,
        4,
        5,
        6
      ],
      "CodeShareCity": false,
      "CustomIcon": null,
      "LabelPosition": "BR",
      "Priority": 0
    },
    {
      "Code": "ILE",
      "CountryCode": "US",
      "Name": "Killeen/Fort Hood",
      "Lat": 31.09,
      "Lon": -97.69,
      "IsHub": false,
      "ZoomLevels": [
        -3,
        1,
        2,
        3,
        4,
        5,
        6
      ],
      "CodeShareCity": false,
      "CustomIcon": null,
      "LabelPosition": "BR",
      "Priority": 0
    },
    {
      "Code": "ILM",
      "CountryCode": "US",
      "Name": "Wilmington",
      "Lat": 34.27,
      "Lon": -77.9,
      "IsHub": false,
      "ZoomLevels": [
        -3,
        1,
        2,
        3,
        4,
        5,
        6
      ],
      "CodeShareCity": false,
      "CustomIcon": null,
      "LabelPosition": "BR",
      "Priority": 0
    },
    {
      "Code": "IND",
      "CountryCode": "US",
      "Name": "Indianapolis",
      "Lat": 39.73,
      "Lon": -86.16,
      "IsHub": false,
      "ZoomLevels": [
        -3,
        1,
        2,
        3,
        4,
        5,
        6
      ],
      "CodeShareCity": false,
      "CustomIcon": null,
      "LabelPosition": "BR",
      "Priority": 0
    },
    {
      "Code": "INN",
      "CountryCode": "AT",
      "Name": "Innsbruck",
      "Lat": 47.26,
      "Lon": 11.4,
      "IsHub": false,
      "ZoomLevels": [
        -3,
        1,
        2,
        3,
        4,
        5,
        6
      ],
      "CodeShareCity": false,
      "CustomIcon": null,
      "LabelPosition": "BR",
      "Priority": 0
    },
    {
      "Code": "IPC",
      "CountryCode": "CL",
      "Name": "Easter Island",
      "Lat": -27.12,
      "Lon": -109.37,
      "IsHub": false,
      "ZoomLevels": [
        -3,
        1,
        2,
        3,
        4,
        5,
        6
      ],
      "CodeShareCity": false,
      "CustomIcon": null,
      "LabelPosition": "BR",
      "Priority": 0
    },
    {
      "Code": "IPT",
      "CountryCode": "US",
      "Name": "Williamsport",
      "Lat": 41.24,
      "Lon": -77,
      "IsHub": false,
      "ZoomLevels": [
        -3,
        1,
        2,
        3,
        4,
        5,
        6
      ],
      "CodeShareCity": false,
      "CustomIcon": null,
      "LabelPosition": "BR",
      "Priority": 0
    },
    {
      "Code": "IQT",
      "CountryCode": "PE",
      "Name": "Iquitos",
      "Lat": -3.75,
      "Lon": -73.25,
      "IsHub": false,
      "ZoomLevels": [
        -3,
        1,
        2,
        3,
        4,
        5,
        6
      ],
      "CodeShareCity": false,
      "CustomIcon": null,
      "LabelPosition": "BR",
      "Priority": 0
    },
    {
      "Code": "IRK",
      "CountryCode": "US",
      "Name": "Kirksville",
      "Lat": 40.19,
      "Lon": -92.54,
      "IsHub": false,
      "ZoomLevels": [
        -3,
        1,
        2,
        3,
        4,
        5,
        6
      ],
      "CodeShareCity": false,
      "CustomIcon": null,
      "LabelPosition": "BR",
      "Priority": 0
    },
    {
      "Code": "ISB",
      "CountryCode": "PK",
      "Name": "Islamabad",
      "Lat": 33.72,
      "Lon": 73.06,
      "IsHub": false,
      "ZoomLevels": [
        -3,
        1,
        2,
        3,
        4,
        5,
        6
      ],
      "CodeShareCity": false,
      "CustomIcon": null,
      "LabelPosition": "BR",
      "Priority": 0
    },
    {
      "Code": "ISP",
      "CountryCode": "US",
      "Name": "Islip",
      "Lat": 40.73,
      "Lon": -73.21,
      "IsHub": false,
      "ZoomLevels": [
        -3,
        1,
        2,
        3,
        4,
        5,
        6
      ],
      "CodeShareCity": false,
      "CustomIcon": null,
      "LabelPosition": "BR",
      "Priority": 0
    },
    {
      "Code": "IST",
      "CountryCode": "TR",
      "Name": "Istanbul",
      "Lat": 40.98,
      "Lon": 28.98,
      "IsHub": false,
      "ZoomLevels": [
        -3,
        1,
        2,
        3,
        4,
        5,
        6
      ],
      "CodeShareCity": false,
      "CustomIcon": null,
      "LabelPosition": "BR",
      "Priority": 0
    },
    {
      "Code": "ITH",
      "CountryCode": "US",
      "Name": "Ithaca",
      "Lat": 42.44,
      "Lon": -76.5,
      "IsHub": false,
      "ZoomLevels": [
        -3,
        1,
        2,
        3,
        4,
        5,
        6
      ],
      "CodeShareCity": false,
      "CustomIcon": null,
      "LabelPosition": "BR",
      "Priority": 0
    },
    {
      "Code": "ITO",
      "CountryCode": "US",
      "Name": "Hilo",
      "Lat": 19.72,
      "Lon": -155.06,
      "IsHub": false,
      "ZoomLevels": [
        -3,
        1,
        2,
        3,
        4,
        5,
        6
      ],
      "CodeShareCity": false,
      "CustomIcon": null,
      "LabelPosition": "BR",
      "Priority": 0
    },
    {
      "Code": "JAC",
      "CountryCode": "US",
      "Name": "Jackson Hole",
      "Lat": 43.48,
      "Lon": -110.74,
      "IsHub": false,
      "ZoomLevels": [
        -3,
        1,
        2,
        3,
        4,
        5,
        6
      ],
      "CodeShareCity": false,
      "CustomIcon": null,
      "LabelPosition": "BR",
      "Priority": 0
    },
    {
      "Code": "JAN",
      "CountryCode": "US",
      "Name": "Jackson",
      "Lat": 32.31,
      "Lon": -90.18,
      "IsHub": false,
      "ZoomLevels": [
        -3,
        1,
        2,
        3,
        4,
        5,
        6
      ],
      "CodeShareCity": false,
      "CustomIcon": null,
      "LabelPosition": "BR",
      "Priority": 0
    },
    {
      "Code": "JAX",
      "CountryCode": "US",
      "Name": "Jacksonville",
      "Lat": 30.33,
      "Lon": -81.69,
      "IsHub": false,
      "ZoomLevels": [
        -3,
        1,
        2,
        3,
        4,
        5,
        6
      ],
      "CodeShareCity": false,
      "CustomIcon": null,
      "LabelPosition": "BR",
      "Priority": 0
    },
    {
      "Code": "JKT",
      "CountryCode": "ID",
      "Name": "Jakarta",
      "Lat": -6.21,
      "Lon": 106.85,
      "IsHub": false,
      "ZoomLevels": [
        -3,
        1,
        2,
        3,
        4,
        5,
        6
      ],
      "CodeShareCity": false,
      "CustomIcon": null,
      "LabelPosition": "BR",
      "Priority": 0
    },
    {
      "Code": "JLN",
      "CountryCode": "US",
      "Name": "Joplin",
      "Lat": 37.08,
      "Lon": -94.5,
      "IsHub": false,
      "ZoomLevels": [
        -3,
        1,
        2,
        3,
        4,
        5,
        6
      ],
      "CodeShareCity": false,
      "CustomIcon": null,
      "LabelPosition": "BR",
      "Priority": 0
    },
    {
      "Code": "JNB",
      "CountryCode": "ZA",
      "Name": "Johannesburg",
      "Lat": -26.2,
      "Lon": 28.05,
      "IsHub": false,
      "ZoomLevels": [
        -3,
        1,
        2,
        3,
        4,
        5,
        6
      ],
      "CodeShareCity": false,
      "CustomIcon": null,
      "LabelPosition": "BR",
      "Priority": 0
    },
    {
      "Code": "JNU",
      "CountryCode": "US",
      "Name": "Juneau",
      "Lat": 58.3,
      "Lon": -134.42,
      "IsHub": false,
      "ZoomLevels": [
        -3,
        1,
        2,
        3,
        4,
        5,
        6
      ],
      "CodeShareCity": false,
      "CustomIcon": null,
      "LabelPosition": "BR",
      "Priority": 0
    },
    {
      "Code": "JOE",
      "CountryCode": "FI",
      "Name": "Joensuu",
      "Lat": 62.6,
      "Lon": 29.76,
      "IsHub": false,
      "ZoomLevels": [
        -3,
        1,
        2,
        3,
        4,
        5,
        6
      ],
      "CodeShareCity": false,
      "CustomIcon": null,
      "LabelPosition": "BR",
      "Priority": 0
    },
    {
      "Code": "JUL",
      "CountryCode": "PE",
      "Name": "Juliaca",
      "Lat": -15.46,
      "Lon": -70.15,
      "IsHub": false,
      "ZoomLevels": [
        -3,
        1,
        2,
        3,
        4,
        5,
        6
      ],
      "CodeShareCity": false,
      "CustomIcon": null,
      "LabelPosition": "BR",
      "Priority": 0
    },
    {
      "Code": "KHH",
      "CountryCode": "TW",
      "Name": "Kaohsiung",
      "Lat": 23.01,
      "Lon": 120.67,
      "IsHub": false,
      "ZoomLevels": [
        -3,
        1,
        2,
        3,
        4,
        5,
        6
      ],
      "CodeShareCity": false,
      "CustomIcon": null,
      "LabelPosition": "BR",
      "Priority": 0
    },
    {
      "Code": "KHI",
      "CountryCode": "PK",
      "Name": "Karachi",
      "Lat": 24.91,
      "Lon": 67.03,
      "IsHub": false,
      "ZoomLevels": [
        -3,
        1,
        2,
        3,
        4,
        5,
        6
      ],
      "CodeShareCity": false,
      "CustomIcon": null,
      "LabelPosition": "BR",
      "Priority": 0
    },
    {
      "Code": "KIN",
      "CountryCode": "JM",
      "Name": "Kingston",
      "Lat": 17.95,
      "Lon": -76.79,
      "IsHub": false,
      "ZoomLevels": [
        -3,
        1,
        2,
        3,
        4,
        5,
        6
      ],
      "CodeShareCity": false,
      "CustomIcon": null,
      "LabelPosition": "BR",
      "Priority": 0
    },
    {
      "Code": "KMG",
      "CountryCode": "CN",
      "Name": "Kunming",
      "Lat": 24.88,
      "Lon": 102.83,
      "IsHub": false,
      "ZoomLevels": [
        -3,
        1,
        2,
        3,
        4,
        5,
        6
      ],
      "CodeShareCity": false,
      "CustomIcon": null,
      "LabelPosition": "BR",
      "Priority": 0
    },
    {
      "Code": "KOA",
      "CountryCode": "US",
      "Name": "Kona",
      "Lat": 19.64,
      "Lon": -156,
      "IsHub": false,
      "ZoomLevels": [
        -3,
        1,
        2,
        3,
        4,
        5,
        6
      ],
      "CodeShareCity": false,
      "CustomIcon": null,
      "LabelPosition": "BR",
      "Priority": 0
    },
    {
      "Code": "KRK",
      "CountryCode": "PL",
      "Name": "Krakow",
      "Lat": 50.08,
      "Lon": 19.94,
      "IsHub": false,
      "ZoomLevels": [
        -3,
        1,
        2,
        3,
        4,
        5,
        6
      ],
      "CodeShareCity": false,
      "CustomIcon": null,
      "LabelPosition": "BR",
      "Priority": 0
    },
    {
      "Code": "KTN",
      "CountryCode": "US",
      "Name": "Ketchikan",
      "Lat": 55.36,
      "Lon": -131.67,
      "IsHub": false,
      "ZoomLevels": [
        -3,
        1,
        2,
        3,
        4,
        5,
        6
      ],
      "CodeShareCity": false,
      "CustomIcon": null,
      "LabelPosition": "BR",
      "Priority": 0
    },
    {
      "Code": "KUL",
      "CountryCode": "MY",
      "Name": "Kuala Lumpur",
      "Lat": 3.14,
      "Lon": 101.69,
      "IsHub": false,
      "ZoomLevels": [
        -3,
        1,
        2,
        3,
        4,
        5,
        6
      ],
      "CodeShareCity": false,
      "CustomIcon": null,
      "LabelPosition": "BR",
      "Priority": 0
    },
    {
      "Code": "KWI",
      "CountryCode": "KW",
      "Name": "Kuwait",
      "Lat": 29.37,
      "Lon": 47.98,
      "IsHub": false,
      "ZoomLevels": [
        -3,
        1,
        2,
        3,
        4,
        5,
        6
      ],
      "CodeShareCity": false,
      "CustomIcon": null,
      "LabelPosition": "BR",
      "Priority": 0
    },
    {
      "Code": "LAN",
      "CountryCode": "US",
      "Name": "Lansing",
      "Lat": 42.73,
      "Lon": -84.59,
      "IsHub": false,
      "ZoomLevels": [
        -3,
        1,
        2,
        3,
        4,
        5,
        6
      ],
      "CodeShareCity": false,
      "CustomIcon": null,
      "LabelPosition": "BR",
      "Priority": 0
    },
    {
      "Code": "LAS",
      "CountryCode": "US",
      "Name": "Las Vegas",
      "Lat": 36.08,
      "Lon": -115.15,
      "IsHub": false,
      "ZoomLevels": [
        -3,
        1,
        2,
        3,
        4,
        5,
        6
      ],
      "CodeShareCity": false,
      "CustomIcon": null,
      "LabelPosition": "BR",
      "Priority": 0
    },
    {
      "Code": "LAW",
      "CountryCode": "US",
      "Name": "Lawton/Fort Sill",
      "Lat": 34.57,
      "Lon": -98.42,
      "IsHub": false,
      "ZoomLevels": [
        -3,
        1,
        2,
        3,
        4,
        5,
        6
      ],
      "CodeShareCity": false,
      "CustomIcon": null,
      "LabelPosition": "BR",
      "Priority": 0
    },
    {
      "Code": "LBA",
      "CountryCode": "GB",
      "Name": "Leeds/Bradford",
      "Lat": 53.83,
      "Lon": -1.58,
      "IsHub": false,
      "ZoomLevels": [
        -3,
        1,
        2,
        3,
        4,
        5,
        6
      ],
      "CodeShareCity": false,
      "CustomIcon": null,
      "LabelPosition": "BR",
      "Priority": 0
    },
    {
      "Code": "LBB",
      "CountryCode": "US",
      "Name": "Lubbock",
      "Lat": 33.58,
      "Lon": -101.82,
      "IsHub": false,
      "ZoomLevels": [
        -3,
        1,
        2,
        3,
        4,
        5,
        6
      ],
      "CodeShareCity": false,
      "CustomIcon": null,
      "LabelPosition": "BR",
      "Priority": 0
    },